[
 {
  "type": "Point",
  "coordinates": [
   51.2509082,
   51.3469744
  ],
  "address": "ЗКО УРАЛЬСК ДЕРКУЛ ДОМ 80"
 },
 {
  "type": "Point",
  "coordinates": [
   51.227821,
   51.3865431
  ],
  "address": "ЗКО УРАЛЬСК УРАЛЬСКОРДА Д.11, КВ.24"
 },
 {
  "type": "Point",
  "coordinates": [
   51.2180412,
   51.370361
  ],
  "address": "ЗКО УРАЛЬСК Х.ЧУРИНА Д.119, КВ.71"
 },
 {
  "type": "Point",
  "coordinates": [
   51.227821,
   51.3865431
  ],
  "address": "ЗКО УРАЛЬСК ЖӘҢҒІР ХАН Д 55, КВ 36"
 },
 {
  "type": "Point",
  "coordinates": [
   51.227821,
   51.3865431
  ],
  "address": "ЗКО УРАЛЬСК УЛ. САД.ТОВ. АВТОДОРОЖНИК, УЛИЦА СТАНДАРТНАЯ, Д. 6Б"
 },
 {
  "type": "Point",
  "coordinates": [
   51.227821,
   51.3865431
  ],
  "address": "ЗКО УРАЛЬСК САД.ТОВАРИЩЕСТВО ЗАЧАГАНСКИЙ Д. 39"
 },
 {
  "type": "Point",
  "coordinates": [
   51.227821,
   51.3865431
  ],
  "address": "ЗКО УРАЛЬСК САДОВОДЧЕСКОЕ ТОВАРИЩЕСТВО ЯГОДКА ДОМ 43"
 },
 {
  "type": "Point",
  "coordinates": [
   51.1807704,
   51.2906904
  ],
  "address": "ЗКО УРАЛЬСК МКР.КОКТЕМ УЛ.КАМБАР БАТЫР Д.8/1, КВ.17"
 },
 {
  "type": "Point",
  "coordinates": [
   51.1807704,
   51.2906904
  ],
  "address": "ЗКО УРАЛЬСК ЗАЧАГАНСК МКР КӨКТЕМ, УЛ.КАМБАР БАТЫР Д.8/1, КВ.67"
 },
 {
  "type": "Point",
  "coordinates": [
   51.227821,
   51.3865431
  ],
  "address": "ЗКО УРАЛЬСК УЛИЦА СОЛТУСТИКЗКО,  УРАЛЬСКСЕВЕРНЫЙ 2 Д.7"
 },
 {
  "type": "Point",
  "coordinates": [
   51.227821,
   51.3865431
  ],
  "address": "ЗКО УРАЛЬСК СОЛТУСТИКЗКО,  УРАЛЬСКСЕВЕРНЫЙ-Д.2, КВ.7"
 },
 {
  "type": "Point",
  "coordinates": [
   51.1880556,
   51.3258333
  ],
  "address": "ЗКО УРАЛЬСК ЗАЧАГАНСК МКРН САРЫТАУ УЛ СУЛТАНА БЕЙБАРЫСА Д 1"
 },
 {
  "type": "Point",
  "coordinates": [
   51.227821,
   51.3865431
  ],
  "address": "ЗКО УРАЛЬСК МИКРОРАЙОН ИМЕНИ Д.А.КУНАЕВА Д.9, КВ.59"
 },
 {
  "type": "Point",
  "coordinates": [
   51.227821,
   51.3865431
  ],
  "address": "ЗКО УРАЛЬСК САД.ТОВАРИЩЕСТВО УМИТКЕР Д.17"
 },
 {
  "type": "Point",
  "coordinates": [
   51.2557586,
   51.2954794
  ],
  "address": "ЗКО УРАЛЬСК ТРУДОВАЯ Д.6, КВ.13"
 },
 {
  "type": "Point",
  "coordinates": [
   51.2616004,
   51.28621039999999
  ],
  "address": "ЗКО УРАЛЬСК ЭЛЕКТРИЧЕСКАЯ Д.13/1, КВ.2"
 },
 {
  "type": "Point",
  "coordinates": [
   51.1807704,
   51.2906904
  ],
  "address": "ЗКО УРАЛЬСК ЗАЧАГАНСКИЙ МКР КОКТЕМ КАМБАР БАТЫР Д.8/1, КВ.80"
 },
 {
  "type": "Point",
  "coordinates": [
   51.1888413,
   51.31651340000001
  ],
  "address": "ЗКО УРАЛЬСК УЛ.ТЕМИРТАУСКАЯ 21 КВ.6"
 },
 {
  "type": "Point",
  "coordinates": [
   51.227821,
   51.3865431
  ],
  "address": "ЗКО УРАЛЬСК ПЕРЕВАЛОЧНОЗКО,  УРАЛЬСКНАБЕРЕЖНАЯ Д 11"
 },
 {
  "type": "Point",
  "coordinates": [
   51.1734235,
   51.275699
  ],
  "address": "ЗКО УРАЛЬСК МКРН КОКТЕМ УЛ М.МУНКЕНУЛЫ Д 93 КВ 11"
 },
 {
  "type": "Point",
  "coordinates": [
   51.2061345,
   51.3784937
  ],
  "address": "ЗКО УРАЛЬСК МИКРОРАЙОН ЖҰЛДЫЗ, УЛИЦА АЗЕРБАЙЖАН МАМБЕТОВ 7"
 },
 {
  "type": "Point",
  "coordinates": [
   51.227821,
   51.3865431
  ],
  "address": "ЗКО УРАЛЬСК  САД.ТОВАРИЩЕСТВО ЗАЧАГАНСКИЙ , Д.728 А"
 },
 {
  "type": "Point",
  "coordinates": [
   51.227821,
   51.3865431
  ],
  "address": "ЗКО УРАЛЬСК 152 СТРЕЛКОВОЙ ДИВИЗИИ 34"
 },
 {
  "type": "Point",
  "coordinates": [
   51.23220380000001,
   51.4474495
  ],
  "address": "ЗКО УРАЛЬСК ПОПОВИЧА Д.1, КВ.84"
 },
 {
  "type": "Point",
  "coordinates": [
   51.2180412,
   51.370361
  ],
  "address": "ЗКО УРАЛЬСК УЛ. Х.ЧУРИНА, Д.119, КВ.222"
 },
 {
  "type": "Point",
  "coordinates": [
   51.2636636,
   51.4501944
  ],
  "address": "ЗКО УРАЛЬСК АЛАШ 34"
 },
 {
  "type": "Point",
  "coordinates": [
   51.227821,
   51.3865431
  ],
  "address": "ЗКО УРАЛЬСК МИРН АРМАН УЛ.ИМ. Ж. АЙМАУЫТОВА 31"
 },
 {
  "type": "Point",
  "coordinates": [
   51.227821,
   51.3865431
  ],
  "address": "ЗКО УРАЛЬСК МКР.СЕВРО ВОСТОК 2 Д.15/2 КВ.407"
 },
 {
  "type": "Point",
  "coordinates": [
   51.227821,
   51.3865431
  ],
  "address": "ЗКО УРАЛЬСК САД.ТОВАРИЩЕСТВР РЕЧНИК Д.191"
 },
 {
  "type": "Point",
  "coordinates": [
   51.1953888,
   51.3689891
  ],
  "address": "ЗКО УРАЛЬСК УЛИЦА АКАДЕМИКА АСАНА ТАЙМАНОВА Д.64 КВ.3"
 },
 {
  "type": "Point",
  "coordinates": [
   51.2387926,
   51.4115024
  ],
  "address": "ЗКО УРАЛЬСК У ГРОМОВОЙ Д.2/1, КВ.42"
 },
 {
  "type": "Point",
  "coordinates": [
   51.1880556,
   51.3258333
  ],
  "address": "ЗКО УРАЛЬСК ЗАЧАГАНСК МКР САРЫТАУ, УЛ ЗЕЙНОЛЛА КАБДОЛОВ ДОМ 9"
 },
 {
  "type": "Point",
  "coordinates": [
   51.227821,
   51.3865431
  ],
  "address": "ЗКО УРАЛЬСК КРУГЛООЗЕРНОВСКИЙ, УЛ. УЛИЦА ШАҒАН, Д. 36"
 },
 {
  "type": "Point",
  "coordinates": [
   51.2238376,
   51.3981155
  ],
  "address": "ЗКО УРАЛЬСК ПРОСПЕКТ АБАЯ Д.119, КВ.802"
 },
 {
  "type": "Point",
  "coordinates": [
   51.1738134,
   51.2911102
  ],
  "address": "ЗКО УРАЛЬСК ЗАЧАГАНСК МКР АРМАН КУСЕПКАЛИЕВ 29"
 },
 {
  "type": "Point",
  "coordinates": [
   51.227821,
   51.3865431
  ],
  "address": "ЗКО УРАЛЬСК КАЖЫМУКАНА Д.9"
 },
 {
  "type": "Point",
  "coordinates": [
   51.1880556,
   51.3258333
  ],
  "address": "ЗКО УРАЛЬСК САДОВОДЧЕСКОЕ ТОВАРИЩЕСТВО ЗАЧАГАНСКИЙ 845"
 },
 {
  "type": "Point",
  "coordinates": [
   51.227821,
   51.3865431
  ],
  "address": "ЗКО УРАЛЬСК Д.К.ЗАЧАГАНСКИЙ Д.1192/1"
 },
 {
  "type": "Point",
  "coordinates": [
   51.227821,
   51.3865431
  ],
  "address": "ЗКО УРАЛЬСК МКР.Д.А.КУНАЕВА Д.70, КВ.35"
 },
 {
  "type": "Point",
  "coordinates": [
   51.2382149,
   51.3813697
  ],
  "address": "ЗКО УРАЛЬСК ОРЕНБУРГСКАЯ 41"
 },
 {
  "type": "Point",
  "coordinates": [
   51.2203155,
   51.3718741
  ],
  "address": "ЗКО УРАЛЬСК УЛ КУРМАНГАЗЫ 177А"
 },
 {
  "type": "Point",
  "coordinates": [
   51.17765869999999,
   51.2933396
  ],
  "address": "ЗКО УРАЛЬСК МКР.КОКТЕМ,УЛ.МУРАТА МУНКЕУЛЫ Д.81, КВ.29"
 },
 {
  "type": "Point",
  "coordinates": [
   51.2509082,
   51.3469744
  ],
  "address": "ЗКО УРАЛЬСК П.ДЕРКУЛ,УЛ.Д.9, КВ.1 ЭТАП Д.30"
 },
 {
  "type": "Point",
  "coordinates": [
   51.2096915,
   51.3773208
  ],
  "address": "ЗКО УРАЛЬСК КУРМАНГАЗЫ Д.100, КВ.11"
 },
 {
  "type": "Point",
  "coordinates": [
   51.1880556,
   51.3258333
  ],
  "address": "ЗКО УРАЛЬСК ЗАЧАГАНСК ДАУЛЕТШЕ КУСЕПКАЛИЕВ 4"
 },
 {
  "type": "Point",
  "coordinates": [
   51.227821,
   51.3865431
  ],
  "address": "ЗКО УРАЛЬСК УЛИЦА ПАМЯТИ ВОИНОВЗКО,  УРАЛЬСКИНТЕРНАЦИОНАЛИСТОВ 102"
 },
 {
  "type": "Point",
  "coordinates": [
   51.227821,
   51.3865431
  ],
  "address": "ЗКО УРАЛЬСК УЛ ПАМЯТИ ВОИНОВ ИНТЕРНАЦИОНАЛИСТОВ 86"
 },
 {
  "type": "Point",
  "coordinates": [
   51.2555552,
   51.44534489999999
  ],
  "address": "ЗКО УРАЛЬСК МКРН ЖАНА ОРДА Д 4 А КВ 19"
 },
 {
  "type": "Point",
  "coordinates": [
   51.227821,
   51.3865431
  ],
  "address": "ЗКО УРАЛЬСК ДЧ.К. ЗАЧАГАНСКИЙ Д 948 А"
 },
 {
  "type": "Point",
  "coordinates": [
   51.2204957,
   51.3668485
  ],
  "address": "ЗКО УРАЛЬСК М.МАМЕТОВОЙ Д.54 КВ.59"
 },
 {
  "type": "Point",
  "coordinates": [
   51.18236109999999,
   51.287378
  ],
  "address": "ЗКО УРАЛЬСК МИКРОРАЙОН КӨКТЕМ, УЛИЦА ҚОБЫЛАНДЫ БАТЫР 35/1"
 },
 {
  "type": "Point",
  "coordinates": [
   51.227821,
   51.3865431
  ],
  "address": "ЗКО УРАЛЬСК ВОИНОВЗКО,  УРАЛЬСКИНТЕРНАЦИОНАЛИСТОВ 35"
 },
 {
  "type": "Point",
  "coordinates": [
   51.227821,
   51.3865431
  ],
  "address": "ЗКО УРАЛЬСК  Д.К. ЗАЧАГАНСКИЙ Д 1251А"
 },
 {
  "type": "Point",
  "coordinates": [
   51.2247664,
   51.373516
  ],
  "address": "ЗКО УРАЛЬСК ЖЕНИС Д 7/1 КВ 71"
 },
 {
  "type": "Point",
  "coordinates": [
   51.2286029,
   51.3594618
  ],
  "address": "ЗКО УРАЛЬСК МИКРОРАЙОН САРЫАРҚА, УЛИЦА ТАЛПЫН ДОМ 47"
 },
 {
  "type": "Point",
  "coordinates": [
   51.2085861,
   51.2914173
  ],
  "address": "ЗКО УРАЛЬСК ЗАЧАГАНСК МКР. БАЛАУСА УЛ.ЕСЕТ БАТЫРА Д.26"
 },
 {
  "type": "Point",
  "coordinates": [
   51.1712275,
   51.3041725
  ],
  "address": "ЗКО УРАЛЬСК УЛ. МКР.ЖАКСЫ АУЛ Д. 130"
 },
 {
  "type": "Point",
  "coordinates": [
   51.21475969999999,
   51.3712661
  ],
  "address": "ЗКО УРАЛЬСК САДОВОДЧЕСКОЕ ТОВАРИЩЕСТВО ЕЛОЧКА, УЛ ЛЕСНАЯ 21"
 },
 {
  "type": "Point",
  "coordinates": [
   51.1803958,
   51.29543049999999
  ],
  "address": "ЗКО УРАЛЬСК МИКР.КОКТЕМ УЛ.МУРАТА МУНКЕУЛЫ 83/1 КВ.61"
 },
 {
  "type": "Point",
  "coordinates": [
   51.23812419999999,
   51.4355352
  ],
  "address": "ЗКО УРАЛЬСК УЛ.И.ЛАРИНА Д 11 КВ 505"
 },
 {
  "type": "Point",
  "coordinates": [
   51.17834449999999,
   51.2951238
  ],
  "address": "ЗКО УРАЛЬСК МИКРОРАЙОН КӨКТЕМ, УЛИЦА МУРАТА МУНКЕУЛЫ Д.81/1, КВ.20"
 },
 {
  "type": "Point",
  "coordinates": [
   51.25383979999999,
   51.4253271
  ],
  "address": "ЗКО УРАЛЬСК УЛ МОСКОВСКАЯ 53/1"
 },
 {
  "type": "Point",
  "coordinates": [
   51.2116295,
   51.3781691
  ],
  "address": "ЗКО УРАЛЬСК КЕРДЕРИ Д.127, КВ.30"
 },
 {
  "type": "Point",
  "coordinates": [
   51.1807347,
   51.2911391
  ],
  "address": "ЗКО УРАЛЬСК МКР.КОКТЕМ.УЛ.КАМБАР БАТЫР Д. 6/1 КВ. 71"
 },
 {
  "type": "Point",
  "coordinates": [
   51.2790709,
   51.46424409999999
  ],
  "address": "ЗКО УРАЛЬСК МКР ЖУЛДЫЗ Ф.ОНГАРСЫНОВА 14"
 },
 {
  "type": "Point",
  "coordinates": [
   51.2061345,
   51.3784937
  ],
  "address": "ЗКО УРАЛЬСК МИКРОРАЙОН ЖҰЛДЫЗ, УЛИЦА АЗЕРБАЙЖАН МАМБЕТОВ 87"
 },
 {
  "type": "Point",
  "coordinates": [
   51.227821,
   51.3865431
  ],
  "address": "ЗКО УРАЛЬСК  УЛ. ИМ. Д.А.КУНАЕВА 71/2, КВ. 24"
 },
 {
  "type": "Point",
  "coordinates": [
   51.17765869999999,
   51.2933396
  ],
  "address": "ЗКО УРАЛЬСКМИКРОРАЙОН КӨКТЕМ, УЛИЦА МУРАТА МУНКЕУЛЫ,Д.81/1,КВ.72"
 },
 {
  "type": "Point",
  "coordinates": [
   51.1734235,
   51.275699
  ],
  "address": "ЗКО УРАЛЬСК МКРН КӨКТЕМ УЛ. МУРАТА МУНКЕУЛЫ Д.93, КВ.57"
 },
 {
  "type": "Point",
  "coordinates": [
   51.227821,
   51.3865431
  ],
  "address": "ЗКО УРАЛЬСК МИКРОРАЙОН КАДЫР МЫРЗА АЛИ Д.3, КВ.8"
 },
 {
  "type": "Point",
  "coordinates": [
   51.227821,
   51.3865431
  ],
  "address": "ЗКО УРАЛЬСК МКР.МАШТАКОВО 17/1"
 },
 {
  "type": "Point",
  "coordinates": [
   51.2328608,
   51.38726080000001
  ],
  "address": "ЗКО УРАЛЬСК УЛ.КУРМАНГАЛИЕВА Д.3/1 КВ.11"
 },
 {
  "type": "Point",
  "coordinates": [
   51.2167269,
   51.3783402
  ],
  "address": "ЗКО УРАЛЬСК УЛ.ИМ МУХИТА Д97 КВ15"
 },
 {
  "type": "Point",
  "coordinates": [
   51.227821,
   51.3865431
  ],
  "address": "ЗКО УРАЛЬСК ЗАЧАГАНСКИЙ МКР БОЛАШАК БУКЕБАЙ 29"
 },
 {
  "type": "Point",
  "coordinates": [
   51.2479874,
   51.42970889999999
  ],
  "address": "ЗКО УРАЛЬСК ПР. АБУЛХАИР ХАНА Д.171, КВ.96"
 },
 {
  "type": "Point",
  "coordinates": [
   51.2454201,
   51.4233902
  ],
  "address": "ЗКО УРАЛЬСК УЛ АБУЛХАИР ХАНА 31"
 },
 {
  "type": "Point",
  "coordinates": [
   51.227821,
   51.3865431
  ],
  "address": "ЗКО УРАЛЬСК УЛ. МИКРОРАЙОН КАДЫР МЫРЗА АЛИ, Д. 11/1, КВ. 36"
 },
 {
  "type": "Point",
  "coordinates": [
   51.1880556,
   51.3258333
  ],
  "address": "ЗКО УРАЛЬСК П.ЗАЧАГАНСКИЙ УЛИЦА ЖАНГИР ХАНА Д15 КВ9"
 },
 {
  "type": "Point",
  "coordinates": [
   51.2441021,
   51.4317375
  ],
  "address": "ЗКО УРАЛЬСК МКР.4, Д.10, КВ.136"
 },
 {
  "type": "Point",
  "coordinates": [
   51.17834449999999,
   51.2951238
  ],
  "address": "ЗКО УРАЛЬСК МИКРОРАЙОН КӨКТЕМ, УЛИЦА МУРАТА МУНКЕУЛЫ ДОМ 81 КВ 61"
 },
 {
  "type": "Point",
  "coordinates": [
   51.2407787,
   51.3788884
  ],
  "address": "ЗКО УРАЛЬСК Д.К.ПРИДОРОЖНАЯ, 5"
 },
 {
  "type": "Point",
  "coordinates": [
   51.2286029,
   51.3594618
  ],
  "address": "ЗКО УРАЛСЬК МКР САРЫАРҚА УЛ ӘМИНА ӨМІРЗАҚОВА 20"
 },
 {
  "type": "Point",
  "coordinates": [
   51.2096915,
   51.3773208
  ],
  "address": "ЗКО УРАЛЬСК УЛИЦА КУРМАНГАЗЫ Д.100, КВ.45"
 },
 {
  "type": "Point",
  "coordinates": [
   51.20795889999999,
   51.3832174
  ],
  "address": "ЗКО УРАЛЬСК МУХИТА Д. 46/4 КВ. 21"
 },
 {
  "type": "Point",
  "coordinates": [
   51.1847583,
   51.3208347
  ],
  "address": "ЗКО УРАЛЬСК УЛ ЖАНГИР ХАНА Д.33/2 КВ.13"
 },
 {
  "type": "Point",
  "coordinates": [
   51.2491698,
   51.4190508
  ],
  "address": "ЗКО УРАЛЬСК МКР.СТРОИТЕЛЬ 5/1 КВ 43"
 },
 {
  "type": "Point",
  "coordinates": [
   51.227821,
   51.3865431
  ],
  "address": "ЗКО УРАЛЬСК АВТОДОРОЖНИК-1 ВИНОГРАДНАЯ 33A"
 },
 {
  "type": "Point",
  "coordinates": [
   51.227821,
   51.3865431
  ],
  "address": "ЗКО УРАЛЬСК САДОВОДЧЕСКОЕ ТОВАРИЩЕСТВО ЭНЕРГЕТИКЗКО,  УРАЛЬСКТЭЦ 21"
 },
 {
  "type": "Point",
  "coordinates": [
   51.227821,
   51.3865431
  ],
  "address": "ЗКО УРАЛЬСК ДАЧНЫЙ КООПЕРАТИВ УРАЛ 6"
 },
 {
  "type": "Point",
  "coordinates": [
   51.227821,
   51.3865431
  ],
  "address": "ЗКО УРАЛЬСК Г.ТУКАЯ Д.71, КВ.4"
 },
 {
  "type": "Point",
  "coordinates": [
   51.2136734,
   51.3709425
  ],
  "address": "ЗКО УРАЛЬСК ЭНЕРГЕТИКЗКО,  УРАЛЬСКТЭЦ, Д.21"
 },
 {
  "type": "Point",
  "coordinates": [
   51.2309034,
   51.38264059999999
  ],
  "address": "ЗКО УРАЛЬСК ДК ЗАЧАГАНСКИЙ 1142"
 },
 {
  "type": "Point",
  "coordinates": [
   51.2145604,
   51.37811869999999
  ],
  "address": "ЗКО УРАЛЬСК УЛ.ИХСАНОВА Д.155/1"
 },
 {
  "type": "Point",
  "coordinates": [
   51.2553043,
   51.4941969
  ],
  "address": "ЗКО УРАЛЬСК П ЖЕЛАЕВО 1ЗКО,  УРАЛЬСКЯ ВЕРБОВАЯ 21"
 },
 {
  "type": "Point",
  "coordinates": [
   51.227821,
   51.3865431
  ],
  "address": "ЗКО УРАЛЬСК УЛ ГЕРОЯ СОВЕТСКОГО СОЮЗА Е.ОРАКБАЕВА Д.16/1, КВ.45"
 },
 {
  "type": "Point",
  "coordinates": [
   51.2637611,
   51.4547507
  ],
  "address": "ЗКО УРАЛЬСК САМАЛ Д. 64"
 },
 {
  "type": "Point",
  "coordinates": [
   51.175695,
   51.295855
  ],
  "address": "ЗКО УРАЛЬСК ЗАЧАГАНСКИЙ МКР АРМАН УЛ М.МУНКЕУЛЫ 108/2, 46"
 },
 {
  "type": "Point",
  "coordinates": [
   51.19200739999999,
   51.29991649999999
  ],
  "address": "ЗКО УРАЛЬСК ГРИНЬКО 111"
 },
 {
  "type": "Point",
  "coordinates": [
   51.1734235,
   51.275699
  ],
  "address": "ЗКО УРАЛЬСК ЗАЧАГАНСКИЙ, МКР.КӨКТЕМ МУРАТА МУНКЕУЛЫ Д.107/1, КВ.65"
 },
 {
  "type": "Point",
  "coordinates": [
   51.2555552,
   51.44534489999999
  ],
  "address": "ЗКО УРАЛЬСК ЖАНА ОРДА Д.9, КВ.142"
 },
 {
  "type": "Point",
  "coordinates": [
   51.2511466,
   51.42610490000001
  ],
  "address": "ЗКО УРАЛЬСК 5МКРН Д3 КВ72"
 },
 {
  "type": "Point",
  "coordinates": [
   51.227821,
   51.3865431
  ],
  "address": "ЗКО УРАЛЬСК САДОВОДЧЕСКОЕ ТОВАРИЩЕСТВО КОЛОС Д 61 А"
 },
 {
  "type": "Point",
  "coordinates": [
   51.1948732,
   51.3798992
  ],
  "address": "ЗКО УРАЛЬСК САМАРСКАЯ Д.32, КВ.8"
 },
 {
  "type": "Point",
  "coordinates": [
   51.227821,
   51.3865431
  ],
  "address": "ЗКО УРАЛЬСК УЛИЦА 2ЗКО,  УРАЛЬСКОЙ КИЛОМЕТР Д.24, КВ.29"
 },
 {
  "type": "Point",
  "coordinates": [
   51.2085861,
   51.2914173
  ],
  "address": "ЗКО УРАЛЬСК МКР. БАЛАУСА УЛ 5ЗКО,  УРАЛЬСКЯ, Д. 32/1"
 },
 {
  "type": "Point",
  "coordinates": [
   51.2286029,
   51.3594618
  ],
  "address": "ЗКО УРАЛЬСК МИКРОРАЙОН САРЫАРҚА, УЛИЦА ТҮРКІСТАН, Д. 74"
 },
 {
  "type": "Point",
  "coordinates": [
   51.227821,
   51.3865431
  ],
  "address": "ЗКО УРАЛЬСК УЛ ТӘУЕЛСІДІК 52"
 },
 {
  "type": "Point",
  "coordinates": [
   51.20795889999999,
   51.3832174
  ],
  "address": "ЗКО УРАЛЬСК УЛ. МУХИТА Д. 46/3 КВ. 40"
 },
 {
  "type": "Point",
  "coordinates": [
   51.20795889999999,
   51.3832174
  ],
  "address": "ЗКО УРАЛЬСК МУХИТА Д.46/3 КВ.26"
 },
 {
  "type": "Point",
  "coordinates": [
   51.20795889999999,
   51.3832174
  ],
  "address": "ЗКО УРАЛЬСК МУХИТА Д.46/3, КВ.26"
 },
 {
  "type": "Point",
  "coordinates": [
   51.20637019999999,
   51.3580129
  ],
  "address": "ЗКО УРАЛЬСК ТОЛСТОГО Д.22, КВ.80"
 },
 {
  "type": "Point",
  "coordinates": [
   51.2424524,
   51.4194687
  ],
  "address": "ЗКО УРАЛЬСК УЛ.ЦИОЛКОВСКОГО Д.2/20 КВ.19"
 },
 {
  "type": "Point",
  "coordinates": [
   51.2424524,
   51.4194687
  ],
  "address": "ЗКО УРАЛЬСК ЦИОЛКОВСКОГО, Д.2/20, КВ.18"
 },
 {
  "type": "Point",
  "coordinates": [
   51.227821,
   51.3865431
  ],
  "address": "ЗКО УРАЛЬСК МКР УЛ МАЙҚЫ БИ 9/1"
 },
 {
  "type": "Point",
  "coordinates": [
   51.227821,
   51.3865431
  ],
  "address": "ЗКО УРАЛЬСК ДЧК ЗАЧАГАНСКИЙ 1427"
 },
 {
  "type": "Point",
  "coordinates": [
   51.227821,
   51.3865431
  ],
  "address": "ЗКО УРАЛЬСК 2 КМ Д.24, КВ.20"
 },
 {
  "type": "Point",
  "coordinates": [
   51.227821,
   51.3865431
  ],
  "address": "ЗКО УРАЛЬСК МИКРОРАЙОН 4 ,Д.19, КВ.42"
 },
 {
  "type": "Point",
  "coordinates": [
   51.2055406,
   51.3674058
  ],
  "address": "ЗКО УРАЛЬСК УЛ С.ЕСКАЛИЕВА Д.182, КВ.78"
 },
 {
  "type": "Point",
  "coordinates": [
   51.227821,
   51.3865431
  ],
  "address": "ЗКО УРАЛЬСК УЛИЦА А.УРАЗБАЕВОЙ, Д.2/1, КВ.30"
 },
 {
  "type": "Point",
  "coordinates": [
   51.175695,
   51.295855
  ],
  "address": "ЗКО УРАЛЬСК МУНКЕУЛЫ Д.108/2, КВ.22"
 },
 {
  "type": "Point",
  "coordinates": [
   51.2122335,
   51.3761916
  ],
  "address": "ЗКО УРАЛЬСК КУРМАНГАЗЫ Д.112/1, КВ.20"
 },
 {
  "type": "Point",
  "coordinates": [
   51.227821,
   51.3865431
  ],
  "address": "ЗКО УРАЛЬСК ЗАЧАГАНСКИЙ МКРН.БОЛАШАК УЛ.БӨКЕН БИ Д.35"
 },
 {
  "type": "Point",
  "coordinates": [
   51.2177608,
   51.3760549
  ],
  "address": "ЗКО УРАЛЬСК К. УЛИЦА АБУБАКИР КЕРДЕРИ,Д.140, КВ.55"
 },
 {
  "type": "Point",
  "coordinates": [
   51.227821,
   51.3865431
  ],
  "address": "ЗКО УРАЛЬСК МКР САРЫТАУ, УЛИЦА КУЛТЕГИН 64"
 },
 {
  "type": "Point",
  "coordinates": [
   51.227821,
   51.3865431
  ],
  "address": "ЗКО УРАЛЬСК УЛ. АТАМЕКЕН Ш.А. 6 К. Д. 13"
 },
 {
  "type": "Point",
  "coordinates": [
   51.2025552,
   51.3657003
  ],
  "address": "ЗКО УРАЛЬСК А.ТАЙМАНОВА 205"
 },
 {
  "type": "Point",
  "coordinates": [
   51.175695,
   51.295855
  ],
  "address": "ЗКО УРАЛЬСК МКР АРМАН УЛ М.МУНКЕУЛЫ Д 108/2, КВ 10"
 },
 {
  "type": "Point",
  "coordinates": [
   51.1735982,
   51.2755926
  ],
  "address": "ЗКО УРАЛЬСК МИКРОРАЙОН КӨКТЕМ, УЛИЦА МУРАТА МУНКЕУЛЫ Д.95, КВ.72"
 },
 {
  "type": "Point",
  "coordinates": [
   51.227821,
   51.3865431
  ],
  "address": "ЗКО УРАЛЬСК МИКРОРАЙОН ИМЕНИ Д.А.КУНАЕВА, Д.61, КВ.17"
 },
 {
  "type": "Point",
  "coordinates": [
   51.2441021,
   51.4317375
  ],
  "address": "ЗКО УРАЛЬСК МКР.4 10 А, 139"
 },
 {
  "type": "Point",
  "coordinates": [
   51.2001898,
   51.3632861
  ],
  "address": "ЗКО УРАЛЬСКУЛИЦА ПОКАТИЛОВА Д.40, КВ.1"
 },
 {
  "type": "Point",
  "coordinates": [
   51.2429053,
   51.4496146
  ],
  "address": "ЗКО УРАЛЬСК УЛ. УЛИЦА РУЖЕЙНИКОВА, Д. 13, КВ. 42"
 },
 {
  "type": "Point",
  "coordinates": [
   51.1880556,
   51.3258333
  ],
  "address": "ЗКО УРАЛЬСК САДОВОДЧЕСКОЕ ТОВАРИЩЕСТВО ЗАЧАГАНСКИЙ, 570"
 },
 {
  "type": "Point",
  "coordinates": [
   51.2479792,
   51.3666073
  ],
  "address": "ЗКО УРАЛЬСК МКР САМАЛ-1 58"
 },
 {
  "type": "Point",
  "coordinates": [
   51.227821,
   51.3865431
  ],
  "address": "ЗКО УРАЛЬСК КОКШЕТАУ 1А 1А"
 },
 {
  "type": "Point",
  "coordinates": [
   51.227821,
   51.3865431
  ],
  "address": "ЗКО УРАЛЬСК ПРОСПЕКТ ДОСТЫҚЗКО,  УРАЛЬСКДРУЖБА 162"
 },
 {
  "type": "Point",
  "coordinates": [
   51.2826586,
   51.2758535
  ],
  "address": "ЗКО УРАЛЬСК П ДЕРКУЛ УЛ УСКЕН АУЛ 18"
 },
 {
  "type": "Point",
  "coordinates": [
   51.227821,
   51.3865431
  ],
  "address": "ЗКО УРАЛЬСК МКР СЕВЕРОЗКО,  УРАЛЬСКВОСТОК 2 Д.46/1, КВ.12"
 },
 {
  "type": "Point",
  "coordinates": [
   51.23690389999999,
   51.449456
  ],
  "address": "ЗКО УРАЛЬСК УЛИЦА РУЖЕЙНИКОВА, Д.9, КВ.102"
 },
 {
  "type": "Point",
  "coordinates": [
   51.227821,
   51.3865431
  ],
  "address": "ЗКО УРАЛЬСК МКР.Д.А.КУНАЕВА Д.51, КВ.65"
 },
 {
  "type": "Point",
  "coordinates": [
   51.225635,
   51.4033375
  ],
  "address": "ЗКО УРАЛЬСК ШКОЛЬНАЯ 41"
 },
 {
  "type": "Point",
  "coordinates": [
   51.2001305,
   51.37942229999999
  ],
  "address": "ЗКО УРАЛЬСК ДАУЛЕТКЕРЕЯ 54"
 },
 {
  "type": "Point",
  "coordinates": [
   51.227821,
   51.3865431
  ],
  "address": "ЗКО УРАЛЬСК МКР ИМЕНИ Д.А.КУНАЕВА Д.27, КВ.165"
 },
 {
  "type": "Point",
  "coordinates": [
   51.1880556,
   51.3258333
  ],
  "address": "ЗКО УРАЛЬСК САДОВОДЧЕСКОЕ ТОВАРИЩЕСТВО ЗАЧАГАНСКИЙ 441А"
 },
 {
  "type": "Point",
  "coordinates": [
   51.1779737,
   51.2812804
  ],
  "address": "ЗКО УРАЛЬСК ЗАЧАГАНСК , УЛ. Е.БРУСИЛОВСКОГО Д. 8/1"
 },
 {
  "type": "Point",
  "coordinates": [
   51.2407921,
   51.37794969999999
  ],
  "address": "ЗКО УРАЛЬСК Д. К АВТОДОРОЖНИК-2, УЛИЦА ПРИДОРОЖНАЯ Д10"
 },
 {
  "type": "Point",
  "coordinates": [
   51.1927259,
   51.3815924
  ],
  "address": "ЗКО УРАЛЬСК УЛ. КОРОЛЕНКО Д.45"
 },
 {
  "type": "Point",
  "coordinates": [
   51.2351329,
   51.36780659999999
  ],
  "address": "ЗКО УРАЛЬСК УЛ.И.ЗРЕЛОВА Д.2/2"
 },
 {
  "type": "Point",
  "coordinates": [
   51.2179862,
   51.3873022
  ],
  "address": "ЗКО УРАЛЬСК ЕВРАЗИЯ Д.102, КВ.131"
 },
 {
  "type": "Point",
  "coordinates": [
   51.227821,
   51.3865431
  ],
  "address": "ЗКО УРАЛЬСК Д.А.КУНАЕВА Д.27 КВ.41"
 },
 {
  "type": "Point",
  "coordinates": [
   51.2305065,
   51.43622939999999
  ],
  "address": "ЗКО УРАЛЬСК ГАГАРИНА Д.41, КВ.5"
 },
 {
  "type": "Point",
  "coordinates": [
   51.2491698,
   51.4190508
  ],
  "address": "ЗКО УРАЛЬСК МКР СТРОИТЕЛЬ Д.27/1, КВ.16"
 },
 {
  "type": "Point",
  "coordinates": [
   51.2122339,
   51.3693494
  ],
  "address": "ЗКО УРАЛЬСК УЛИЦА М.ИХСАНОВА, 44/1Б-34"
 },
 {
  "type": "Point",
  "coordinates": [
   51.1880556,
   51.3258333
  ],
  "address": "ЗКО УРАЛЬСК САДОВОДЧЕСКОЕ ТОВАРИЩЕСТВО ЗАЧАГАНСКИЙ 599 А"
 },
 {
  "type": "Point",
  "coordinates": [
   51.2398395,
   51.3819263
  ],
  "address": "ЗКО УРАЛЬСК КОКЧЕТАВСКАЯ 1 А"
 },
 {
  "type": "Point",
  "coordinates": [
   51.227821,
   51.3865431
  ],
  "address": "ЗКО УРАЛЬСК С.Т.ЗАЧАГАНСКИЙ Д.585/2"
 },
 {
  "type": "Point",
  "coordinates": [
   51.227821,
   51.3865431
  ],
  "address": "ЗКО УРАЛЬСК 4 МКР Д 25, КВ 97"
 },
 {
  "type": "Point",
  "coordinates": [
   51.2371323,
   51.4070461
  ],
  "address": "ЗКО УРАЛЬСК УЛ.ТЮЛЕНИНА Д.6, КВ.68"
 },
 {
  "type": "Point",
  "coordinates": [
   51.20862589999999,
   51.3871863
  ],
  "address": "ЗКО УРАЛЬСК ШЕВЧЕНКО Д.51, КВ.5"
 },
 {
  "type": "Point",
  "coordinates": [
   51.2330283,
   51.44715850000001
  ],
  "address": "ЗКО УРАЛЬСК УЛИЦА ГАГАРИНА, Д. 36/4, КВ. 149"
 },
 {
  "type": "Point",
  "coordinates": [
   51.2355798,
   51.4445624
  ],
  "address": "ЗКО УРАЛЬСК ЧИНГИРЛАУСКАЯ Д.3, КВ.2"
 },
 {
  "type": "Point",
  "coordinates": [
   51.2017476,
   51.3653459
  ],
  "address": "ЗКО УРАЛЬСК УЛИЦА 8 МАРТА 106"
 },
 {
  "type": "Point",
  "coordinates": [
   51.2543999,
   51.4384188
  ],
  "address": "ЗКО УРАЛЬСК МКР АСТАНА Д. 25 КВ. 63"
 },
 {
  "type": "Point",
  "coordinates": [
   51.1794282,
   51.30822569999999
  ],
  "address": "ЗКО УРАЛЬСК ЖАНГИР ХАНА Д.49 КОРПУС ОБЩ2"
 },
 {
  "type": "Point",
  "coordinates": [
   49.56797270000001,
   50.8066616
  ],
  "address": "ЗКО УРАЛЬСКЗАЧАГАНСК,Ж.АЙМАУЫТОВА 1/2"
 },
 {
  "type": "Point",
  "coordinates": [
   51.16791019999999,
   51.2954585
  ],
  "address": "ЗКО УРАЛЬСК МИКРОРАЙОН КЕҢ ДАЛА, УЛИЦА ҚОБЫЛАНДЫ БАТЫР 19"
 },
 {
  "type": "Point",
  "coordinates": [
   51.1771821,
   51.2811351
  ],
  "address": "ЗКО УРАЛЬСК Е.БРУСИЛОВСКОГО Д.71"
 },
 {
  "type": "Point",
  "coordinates": [
   51.1738134,
   51.2911102
  ],
  "address": "ЗКО УРАЛЬСК МКР АРМАН УЛ А БАЙТУРСЫНОВА 6"
 },
 {
  "type": "Point",
  "coordinates": [
   51.227821,
   51.3865431
  ],
  "address": "ЗКО УРАЛЬСК МКР КАДЫР МЫРЗА АЛИ Д.30/1, КВ.70"
 },
 {
  "type": "Point",
  "coordinates": [
   51.2216599,
   51.395984
  ],
  "address": "ЗКО УРАЛЬСК ПР ЕВРАЗИЯ Д.208/1,КВ.42"
 },
 {
  "type": "Point",
  "coordinates": [
   51.2250784,
   51.3672474
  ],
  "address": "ЗКО УРАЛЬСК УЛИЦА АЛИИ МОЛДАГУЛОВОЙ Д.1, КВ.2"
 },
 {
  "type": "Point",
  "coordinates": [
   51.2790709,
   51.46424409999999
  ],
  "address": "ЗКО УРАЛЬСК МКР.ЖУЛДЫЗ УЛ.4ЗКО,  УРАЛЬСКЯ Д. 90"
 },
 {
  "type": "Point",
  "coordinates": [
   51.227821,
   51.3865431
  ],
  "address": "ЗКО УРАЛЬСК УЛИЦА ИМЕНИ С.ДАУЫМОВА 39"
 },
 {
  "type": "Point",
  "coordinates": [
   51.1880556,
   51.3258333
  ],
  "address": "ЗКО УРАЛЬСК ЗАЧАГАНСК, УЛ. МКР. САРЫТАУ, УЛ. З.КАБДОЛОВ, Д. 1/2"
 },
 {
  "type": "Point",
  "coordinates": [
   51.1991416,
   51.3702537
  ],
  "address": "ЗКО УРАЛЬСК СУНДЕТКАЛИ ЕСКАЛИЕВА Д.106, КВ.1"
 },
 {
  "type": "Point",
  "coordinates": [
   51.19828320000001,
   51.37584630000001
  ],
  "address": "ЗКО УРАЛЬСК УЛ.Г.КАРАША Д.73, КВ.1"
 },
 {
  "type": "Point",
  "coordinates": [
   51.175695,
   51.295855
  ],
  "address": "ЗКО УРАЛЬСК МКР АРМАН УЛ М.МУНКЕУЛЫ Д 108/2, КВ 45"
 },
 {
  "type": "Point",
  "coordinates": [
   51.1880556,
   51.3258333
  ],
  "address": "ЗКО УРАЛЬСК САДОВОДЧЕСКОЕ ТОВАРИЩЕСТВО ЗАЧАГАНСКИЙ 208"
 },
 {
  "type": "Point",
  "coordinates": [
   51.227821,
   51.3865431
  ],
  "address": "ЗКО УРАЛЬСК УЛИЦА К.АМАНЖОЛОВ 33 КВ 3"
 },
 {
  "type": "Point",
  "coordinates": [
   51.2034676,
   51.3630357
  ],
  "address": "ЗКО УРАЛЬСК САДОВОДЧЕСКОЕ ТОВАРИЩЕСТВО ЗЕНИТ 263"
 },
 {
  "type": "Point",
  "coordinates": [
   51.227821,
   51.3865431
  ],
  "address": "ЗКО УРАЛЬСК МКР САРЫТАУ УЛ КАЗАНГАПА 16"
 },
 {
  "type": "Point",
  "coordinates": [
   51.227821,
   51.3865431
  ],
  "address": "ЗКО УРАЛЬСК САДОВОДЧЕСКОЕ ТОВАРИЩЕСТВО ЛОКОМОТИВ 56"
 },
 {
  "type": "Point",
  "coordinates": [
   51.1712275,
   51.3041725
  ],
  "address": "ЗКО УРАЛЬСК ЖАКСЫ АУЛ Д.70"
 },
 {
  "type": "Point",
  "coordinates": [
   51.1880556,
   51.3258333
  ],
  "address": "ЗКО УРАЛЬСК П.ЗАЧАГАНСК УЛ.БАЙТУРСЫНОВА Д.24"
 },
 {
  "type": "Point",
  "coordinates": [
   51.2434469,
   51.4236023
  ],
  "address": "ЗКО УРАЛЬСК ЗАЧАГАНСК, МКР. КӨКТЕМ, УЛ. ШҰҒЫЛА, Д. 18/1"
 },
 {
  "type": "Point",
  "coordinates": [
   51.2322585,
   51.4146937
  ],
  "address": "ЗКО УРАЛЬСК УЛ.АКТЮБИНСКАЯ 89"
 },
 {
  "type": "Point",
  "coordinates": [
   51.227821,
   51.3865431
  ],
  "address": "ЗКО УРАЛЬСК МКР.БОЛАШАК УЛ.НАУШЫ БАТЫРА Д. 33"
 },
 {
  "type": "Point",
  "coordinates": [
   50.10236279999999,
   51.3933907
  ],
  "address": "ЗКО АКЖАИКСКИЙ РАЙОН С.КОНЕККЕТКЕН УЛ.ТАУЕЛСИЗДИК Д.44 КВ.2"
 },
 {
  "type": "Point",
  "coordinates": [
   51.256622,
   51.2920823
  ],
  "address": "ЗКО УРАЛЬСК ДЕРКУЛ МКРН САРЫАРҚА УЛ. АЛТЫН ОРДА 18"
 },
 {
  "type": "Point",
  "coordinates": [
   51.1738134,
   51.2911102
  ],
  "address": "ЗКО УРАЛЬСК МКР. АРМАН УЛ. М. ЖУМАБАЕВА, Д. 58, КОРПУС 1"
 },
 {
  "type": "Point",
  "coordinates": [
   51.2429053,
   51.4496146
  ],
  "address": "ЗКО УРАЛЬСК УЛИЦА РУЖЕЙНИКОВА Д.13, КВ.1"
 },
 {
  "type": "Point",
  "coordinates": [
   51.221407,
   51.39231210000001
  ],
  "address": "ЗКО УРАЛЬСК ПРОСПЕКТ АБАЯ Д.107, КВ.11"
 },
 {
  "type": "Point",
  "coordinates": [
   51.256622,
   51.2920823
  ],
  "address": "ЗКО УРАЛЬСК ДЕРКУЛ МКР.САРЫАРҚА, УЛИЦА СҰЛТАНМАХМҰТ ТОРАЙҒЫРОВ 70"
 },
 {
  "type": "Point",
  "coordinates": [
   51.1880556,
   51.3258333
  ],
  "address": "ЗКО УРАЛЬСК САДОВОДЧЕСКОЕ ТОВАРИЩЕСТВО ЗАЧАГАНСКИЙ 1411А"
 },
 {
  "type": "Point",
  "coordinates": [
   51.17765869999999,
   51.2933396
  ],
  "address": "ЗКО УРАЛЬСКЗАЧАГАНСКИЙ,МКР.КОКТЕМ, УЛ.М.МУНКЕУЛЫ, Д.87. КВ.30"
 },
 {
  "type": "Point",
  "coordinates": [
   51.227821,
   51.3865431
  ],
  "address": "ЗКО УРАЛЬСК УЛ АЛМАЗКО,  УРАЛЬСКАТИНСКАЯ 119"
 },
 {
  "type": "Point",
  "coordinates": [
   51.2598268,
   51.2970597
  ],
  "address": "ЗКО УРАЛЬСК УЛИЦА 2 САДОВЫЙ ПЕРЕУЛОК 5/1"
 },
 {
  "type": "Point",
  "coordinates": [
   51.227821,
   51.3865431
  ],
  "address": "ЗКО УРАЛЬСК МИКРОРАЙОН КАДЫР МЫРЗА АЛИ Д.8, КВ.77"
 },
 {
  "type": "Point",
  "coordinates": [
   51.227821,
   51.3865431
  ],
  "address": "ЗКО УРАЛЬСК МКР Д. КУНАЕВА Д 19, КВ 48"
 },
 {
  "type": "Point",
  "coordinates": [
   51.2286029,
   51.3594618
  ],
  "address": "ЗКО УРАЛЬСК МИКРОРАЙОН САРЫАРҚА, УЛИЦА ТҮРКІСТАН Д 77"
 },
 {
  "type": "Point",
  "coordinates": [
   51.2297726,
   51.4384831
  ],
  "address": "ЗКО УРАЛЬСК УЛИЦА ЖДАНОВА Д.14, КВ.58"
 },
 {
  "type": "Point",
  "coordinates": [
   51.2120286,
   51.3737065
  ],
  "address": "ЗКО УРАЛЬСК САКЕНА СЕЙФУЛЛИНА 153"
 },
 {
  "type": "Point",
  "coordinates": [
   51.22995359999999,
   51.4665754
  ],
  "address": "ЗКО УРАЛЬСК МЯСОКОМБИНАТ Д.8, КВ.418 КОМ 14-15"
 },
 {
  "type": "Point",
  "coordinates": [
   51.2509082,
   51.3469744
  ],
  "address": "ЗКО УРАЛЬСК ДЕРКУЛ МКРН КӨКЖИЕК УЛ. МАЙҚЫ БИ 14"
 },
 {
  "type": "Point",
  "coordinates": [
   51.2286029,
   51.3594618
  ],
  "address": "ЗКО УРАЛЬСК МИКРОРАЙОН САРЫАРҚА, УЛИЦА ТҮРКІСТАН, Д. 24"
 },
 {
  "type": "Point",
  "coordinates": [
   51.2491698,
   51.4190508
  ],
  "address": "ЗКО УРАЛЬСК МКРН СТРОИТЕЛЬ Д.21, КВ.85"
 },
 {
  "type": "Point",
  "coordinates": [
   51.2416301,
   51.4064883
  ],
  "address": "ЗКО УРАЛЬСК ПР.ИМ АБУЛХАИР ХАНА Д101/1 КВ44"
 },
 {
  "type": "Point",
  "coordinates": [
   51.1999685,
   51.3809128
  ],
  "address": "ЗКО УРАЛЬСК КУРМАНГАЗЫ, Д.48, КВ.1"
 },
 {
  "type": "Point",
  "coordinates": [
   51.2543999,
   51.4384188
  ],
  "address": "ЗКО УРАЛЬСК МКР АСТАНА Д.9, КВ.41"
 },
 {
  "type": "Point",
  "coordinates": [
   51.227821,
   51.3865431
  ],
  "address": "ЗКО УРАЛЬСК МКР.САРЫТАУ УЛ.С.БАЙБАРЫСА Д.59/1"
 },
 {
  "type": "Point",
  "coordinates": [
   51.191989,
   51.3790078
  ],
  "address": "ЗКО УРАЛЬСК УЛИЦА МАЖИТА ЖУНИСОВА Д.19 КВ.5"
 },
 {
  "type": "Point",
  "coordinates": [
   51.2313653,
   51.384035
  ],
  "address": "ЗКО УРАЛЬСК УЛ.КАРБЫШЕВА Д.17"
 },
 {
  "type": "Point",
  "coordinates": [
   51.227821,
   51.3865431
  ],
  "address": "ЗКО УРАЛЬСК МКР.ИМ К.МЫРЗА АЛИ Д4 КВ12"
 },
 {
  "type": "Point",
  "coordinates": [
   51.2286029,
   51.3594618
  ],
  "address": "ЗКО УРАЛЬСК САРЫАРҚА АБЫЛАЙ ХАНА 143"
 },
 {
  "type": "Point",
  "coordinates": [
   51.2359775,
   51.4560846
  ],
  "address": "ЗЗКО,  УРАЛЬСККАЗАХСТАНСКАЯ,Г УРАЛЬСК УЛИЦА ГАГАРИНА Д.70/7, КВ.58"
 },
 {
  "type": "Point",
  "coordinates": [
   51.227821,
   51.3865431
  ],
  "address": "ЗКО УРАЛЬСК  КРУГЛООЗЕРНОВСКИЙ, СЕРЕБРЯКОВО УЛИЦА БОРИСЮКА 8"
 },
 {
  "type": "Point",
  "coordinates": [
   51.2441021,
   51.4317375
  ],
  "address": "ЗКО УРАЛЬСК  МКР 4 Д 7 КВ 48"
 },
 {
  "type": "Point",
  "coordinates": [
   51.227821,
   51.3865431
  ],
  "address": "ЗКО УРАЛЬСК САДОВОДЧЕСКОЕ ТОВАРИЩЕСТВО АВТОДОРОЖНИК-1 Д.36"
 },
 {
  "type": "Point",
  "coordinates": [
   51.2308691,
   51.3872125
  ],
  "address": "ЗКО УРАЛЬСК Г.КУРМАНГАЛИЕВА 1/3"
 },
 {
  "type": "Point",
  "coordinates": [
   51.227821,
   51.3865431
  ],
  "address": "ЗКО УРАЛЬСК МКР САРЫТАУ УЛ 6ЗКО,  УРАЛЬСКЯ Д.4"
 },
 {
  "type": "Point",
  "coordinates": [
   51.2543999,
   51.4384188
  ],
  "address": "ЗКО УРАЛЬСК УЛ. МИКРОРАЙОН АСТАНА, Д. 43, КВ. 18"
 },
 {
  "type": "Point",
  "coordinates": [
   51.2001612,
   51.3721776
  ],
  "address": "ЗКО УРАЛЬСК А.КАРЕВ 26А"
 },
 {
  "type": "Point",
  "coordinates": [
   51.256622,
   51.2920823
  ],
  "address": "ЗКО УРАЛЬСК П.ДЕРКУЛ МКР САРЫАРҚА УЛ ІЛИЯС ЖАНСҮГІРОВ 24"
 },
 {
  "type": "Point",
  "coordinates": [
   51.1880556,
   51.3258333
  ],
  "address": "ЗКО УРАЛЬСК ЗАЧАГАНСКУЛ.ЖАНГИР ХАНА Д.15 КВ.111"
 },
 {
  "type": "Point",
  "coordinates": [
   51.227821,
   51.3865431
  ],
  "address": "ЗКО УРАЛЬСК МИКРОРАЙОН САРЫТАУ, УЛИЦА ТАТТИМБЕТА 15/1"
 },
 {
  "type": "Point",
  "coordinates": [
   51.2345889,
   51.43318720000001
  ],
  "address": "ЗКО УРАЛЬСК УЛИЦА СЫРЫМА ДАТУЛЫ Д.17, КВ.213"
 },
 {
  "type": "Point",
  "coordinates": [
   51.227821,
   51.3865431
  ],
  "address": "ЗКО УРАЛЬСК СОЛОМИХИНА 12"
 },
 {
  "type": "Point",
  "coordinates": [
   51.227821,
   51.3865431
  ],
  "address": "ЗКО УРАЛЬСК САРЫТАУ УЛИЦА ТАТТИМБЕТА 10"
 },
 {
  "type": "Point",
  "coordinates": [
   51.227821,
   51.3865431
  ],
  "address": "ЗКО УРАЛЬСК ДЧК.ЗАЧАГАНСКИЙ Д.1329"
 },
 {
  "type": "Point",
  "coordinates": [
   51.2054421,
   51.3869209
  ],
  "address": "ЗКО УРАЛЬСК ЛЕРМОНТОВА 44/1"
 },
 {
  "type": "Point",
  "coordinates": [
   51.1735982,
   51.2755926
  ],
  "address": "ЗКО УРАЛЬСК ЗАЧАГАНСКИЙ МКР КОКТЕМ УЛ МУРАТА МУНКЕУЛЫ Д.95 КВ.61"
 },
 {
  "type": "Point",
  "coordinates": [
   51.2009151,
   51.3706093
  ],
  "address": "ЗКО УРАЛЬСК ФРУНЗЕ 58"
 },
 {
  "type": "Point",
  "coordinates": [
   51.2543999,
   51.4384188
  ],
  "address": "ЗКО УРАЛЬСК МКР АСТАНА Д.9, КВ.77"
 },
 {
  "type": "Point",
  "coordinates": [
   51.227821,
   51.3865431
  ],
  "address": "ЗКО УРАЛЬСК УЛИЦА МҰХАМЕДЖАН СЕРАЛИН 32/1"
 },
 {
  "type": "Point",
  "coordinates": [
   51.1880556,
   51.3258333
  ],
  "address": "ЗКО УРАЛЬСК САДОВОДЧЕСКОЕ ТОВАРИЩЕСТВО ЗАЧАГАНСКИЙ 702"
 },
 {
  "type": "Point",
  "coordinates": [
   51.2618745,
   51.28709569999999
  ],
  "address": "ЗКО УРАЛЬСК УЛИЦА ЭЛЕКТРИЧЕСКАЯ, Д. 12, КВ. 10"
 },
 {
  "type": "Point",
  "coordinates": [
   51.2491698,
   51.4190508
  ],
  "address": "ЗКО УРАЛЬСК УЛ. ДАЧНЫЙ КООПЕРАТИВ СТРОИТЕЛЬ, Д. 60А"
 },
 {
  "type": "Point",
  "coordinates": [
   51.227821,
   51.3865431
  ],
  "address": "ЗКО УРАЛЬСК ДАЧНЫЙ КООПЕРАТИВ УРАЛ Д 12"
 },
 {
  "type": "Point",
  "coordinates": [
   51.227821,
   51.3865431
  ],
  "address": "ЗКО  УРАЛЬСК ИСАТАЙЗКО,  УРАЛЬСК МАХАМБЕТ Д38/3"
 },
 {
  "type": "Point",
  "coordinates": [
   51.227821,
   51.3865431
  ],
  "address": "ЗКО УРАЛЬСК ПРОСПЕКТ НҰРСҰЛТАН НАЗАРБАЕВ 148/1ЗКО,  УРАЛЬСК 412"
 },
 {
  "type": "Point",
  "coordinates": [
   51.227821,
   51.3865431
  ],
  "address": "ЗКО УРАЛЬСК МИКРОРАЙОН АТАМЕКЕН, УЛИЦА МАРКАСКА Д.18"
 },
 {
  "type": "Point",
  "coordinates": [
   51.2441021,
   51.4317375
  ],
  "address": "ЗКО УРАЛЬСК МКР.4, Д.10, КВ.113"
 },
 {
  "type": "Point",
  "coordinates": [
   51.227821,
   51.3865431
  ],
  "address": "ЗКО УРАЛЬСК Д.К ЗАЧАГАНСКИЙ 741 А"
 },
 {
  "type": "Point",
  "coordinates": [
   51.2502819,
   51.29682889999999
  ],
  "address": "ЗКО УРАЛЬСК МИКРОРАЙОН ВЕТЕЛКИ, УЛИЦА ЦЕНТРАЛЬНАЯ Д.16, КВ.2"
 },
 {
  "type": "Point",
  "coordinates": [
   51.1888961,
   51.3119502
  ],
  "address": "ЗКО УРАЛЬСК МКР АВТОМОБИЛИСТОВ 73/1"
 },
 {
  "type": "Point",
  "coordinates": [
   51.2491698,
   51.4190508
  ],
  "address": "ЗКО УРАЛЬСК ДЧК. СТРОИТЕЛЬ-1 Д.44"
 },
 {
  "type": "Point",
  "coordinates": [
   51.227821,
   51.3865431
  ],
  "address": "ЗКО УРАЛЬСК ПРОСПЕКТ ДОСТЫҚЗКО,  УРАЛЬСКДРУЖБА Д.148/1 КВ. 213"
 },
 {
  "type": "Point",
  "coordinates": [
   51.20762449999999,
   51.3712022
  ],
  "address": "ЗКО УРАЛЬСК УЛ К АМАНЖОЛОВ 54ЗКО,  УРАЛЬСК 8"
 },
 {
  "type": "Point",
  "coordinates": [
   51.227821,
   51.3865431
  ],
  "address": "ЗКО УРАЛЬСК УЛИЦА БІРЛІК 35"
 },
 {
  "type": "Point",
  "coordinates": [
   51.227821,
   51.3865431
  ],
  "address": "ЗКО УРАЛЬСК ЗАЧАГАНСКИЙ УЛИЦА 25ЗКО,  УРАЛЬСКЧАПАЕВСКОЙ ДИВИЗИИ Д.6, КВ.56"
 },
 {
  "type": "Point",
  "coordinates": [
   51.227821,
   51.3865431
  ],
  "address": "ЗКО УРАЛЬСК ПРОСПЕКТ НҰРСҰЛТАН НАЗАРБАЕВ, Д. 244/1, КВ. 72"
 },
 {
  "type": "Point",
  "coordinates": [
   51.175695,
   51.295855
  ],
  "address": "ЗКО УРАЛЬСК МИКРОРАЙОН АРМАН, УЛИЦА МУРАТА МУНКЕУЛЫ Д.108/2, КВ.53"
 },
 {
  "type": "Point",
  "coordinates": [
   51.227821,
   51.3865431
  ],
  "address": "ЗКО УРАЛЬСК С/Т ЛОКОМОТИВ Д.363А"
 },
 {
  "type": "Point",
  "coordinates": [
   51.227821,
   51.3865431
  ],
  "address": "ЗКО УРАЛЬСК МИКРОРАЙОН КАДЫР МЫРЗА АЛИ Д 3, КВ 87"
 },
 {
  "type": "Point",
  "coordinates": [
   51.16791019999999,
   51.2954585
  ],
  "address": "ЗКО УРАЛЬСК ЗАЧАГАНСКИЙ МКР КЕҢ ДАЛА УЛ БАЯН СҰЛУ 15/1"
 },
 {
  "type": "Point",
  "coordinates": [
   51.2482954,
   51.4425125
  ],
  "address": "ЗКО УРАЛЬСК МКРН.КУНАЕВА Д.59 КВ.6"
 },
 {
  "type": "Point",
  "coordinates": [
   51.227821,
   51.3865431
  ],
  "address": "ЗКО УРАЛЬСК МИКРОРАЙОН ИМЕНИ Д.А.КУНАЕВА Д.56, КВ.33"
 },
 {
  "type": "Point",
  "coordinates": [
   51.2543999,
   51.4384188
  ],
  "address": "ЗКО УРАЛЬСК МКР АСТАНА Д.9 КВ.12"
 },
 {
  "type": "Point",
  "coordinates": [
   51.2641505,
   51.3089794
  ],
  "address": "ЗКО УРАЛЬСК ДЕРКУЛ ДЕРКУЛЬСКАЯ 1/3"
 },
 {
  "type": "Point",
  "coordinates": [
   51.17765869999999,
   51.2933396
  ],
  "address": "ЗКО УРАЛЬСК МКР КОКТЕМ УЛ М.МУНКЕУЛЫ Д 81/1, КВ 76"
 },
 {
  "type": "Point",
  "coordinates": [
   51.1880556,
   51.3258333
  ],
  "address": "ЗКО УРАЛЬСК ЗАЧАГАНСК УЛ КУЛТЕГИН Д 67/1"
 },
 {
  "type": "Point",
  "coordinates": [
   51.227821,
   51.3865431
  ],
  "address": "БҚО ОРАЛ АКАНСЕРИ Д.10"
 },
 {
  "type": "Point",
  "coordinates": [
   51.2264805,
   51.39731279999999
  ],
  "address": "ЗКО УРАЛЬСК УЛИЦА ДЕПОВСКАЯ Д.18, КВ.43"
 },
 {
  "type": "Point",
  "coordinates": [
   51.16791019999999,
   51.2954585
  ],
  "address": "ЗКО УРАЛЬСК МИКРОРАЙОН КЕҢ ДАЛА, УЛИЦА ЖИРЕНШЕ ШЕШЕН 5"
 },
 {
  "type": "Point",
  "coordinates": [
   51.2744043,
   51.4280061
  ],
  "address": "ЗКО УРАЛЬСК УЛИЦА АЛМАЛЫ 68"
 },
 {
  "type": "Point",
  "coordinates": [
   51.2025552,
   51.3657003
  ],
  "address": "ЗКО УРАЛЬСК А.ТАЙМАНОВА 149"
 },
 {
  "type": "Point",
  "coordinates": [
   51.227821,
   51.3865431
  ],
  "address": "ЗКО УРАЛЬСК УЛ ҚОҒАЛЫ 52/1"
 },
 {
  "type": "Point",
  "coordinates": [
   51.1880556,
   51.3258333
  ],
  "address": "ЗКО УРАЛЬСК ЗАЧАГАНСК УЛ ЖАНГИР ХАНА Д 57 КВ 1"
 },
 {
  "type": "Point",
  "coordinates": [
   51.2055436,
   51.3575707
  ],
  "address": "ЗКО УРАЛЬСК САРАЙШЫК Д.19, КВ.145"
 },
 {
  "type": "Point",
  "coordinates": [
   51.2555552,
   51.44534489999999
  ],
  "address": "ЗКО УРАЛЬСК МИКРОРАЙОН ЖАҢА ОРДА Д.7, КВ.101"
 },
 {
  "type": "Point",
  "coordinates": [
   51.1880556,
   51.3258333
  ],
  "address": "ЗКО УРАЛЬСК САДОВОДЧЕСКОЕ ТОВАРИЩЕСТВО ЗАЧАГАНСКИЙ 608 А"
 },
 {
  "type": "Point",
  "coordinates": [
   51.227821,
   51.3865431
  ],
  "address": "ЗКО  УРАЛЬСК УЛИЦА ТАЛДЫ, Д. 11/2"
 },
 {
  "type": "Point",
  "coordinates": [
   51.2372149,
   51.3816974
  ],
  "address": "ЗКО УРАЛЬСК С.ЖАКСЫГУЛОВА Д.33 КВ.505"
 },
 {
  "type": "Point",
  "coordinates": [
   51.2607832,
   51.428873
  ],
  "address": "ЗКО УРАЛЬСК  СВЕТЛАЯ 11"
 },
 {
  "type": "Point",
  "coordinates": [
   51.227821,
   51.3865431
  ],
  "address": "ЗКО УРАЛЬСК САДОВОДЧЕСКОЕ ТОВАРИЩЕСТВО ГАЗОВИК 188/1"
 },
 {
  "type": "Point",
  "coordinates": [
   51.2441021,
   51.4317375
  ],
  "address": "ЗКО УРАЛЬСК УЛ. МИКРОРАЙОН 4, Д. 2, КВ. 86"
 },
 {
  "type": "Point",
  "coordinates": [
   51.2607832,
   51.428873
  ],
  "address": "ЗКО УРАЛЬСК УЛИЦА СВЕТЛАЯ 17/1"
 },
 {
  "type": "Point",
  "coordinates": [
   51.227821,
   51.3865431
  ],
  "address": "ЗКО УРАЛЬСК ЧАЛКАРСКИЙ ТУПИК 2"
 },
 {
  "type": "Point",
  "coordinates": [
   51.1738134,
   51.2911102
  ],
  "address": "ЗКО УРАЛЬСК МКР АРМАН УЛ М. ТЫНЫШБАЕВА Д. 34"
 },
 {
  "type": "Point",
  "coordinates": [
   51.2136535,
   51.37841359999999
  ],
  "address": "УРАЛЬСК УЛ. УЛИЦА М.ИХСАНОВА, Д. 54, КВ. 3"
 },
 {
  "type": "Point",
  "coordinates": [
   51.227821,
   51.3865431
  ],
  "address": "ЗКО УРАЛЬСК МИКР.САРЫАРКА УЛ.Б.МАЙЛИНА Д 8"
 },
 {
  "type": "Point",
  "coordinates": [
   51.2149647,
   51.3567195
  ],
  "address": "ЗКО УРАЛЬСК УЛИЦА ПОБЕДЫ 14"
 },
 {
  "type": "Point",
  "coordinates": [
   51.175695,
   51.295855
  ],
  "address": "ЗКО УРАЛЬСК МКР.АРМАН УЛ.М.МОНКЕУЛЫ Д.108/2 КВ.6"
 },
 {
  "type": "Point",
  "coordinates": [
   51.1880556,
   51.3258333
  ],
  "address": "ЗКО УРАЛЬСК ЗАЧАГАНСК ЕРЗКО,  УРАЛЬСКТОРГЫН 7"
 },
 {
  "type": "Point",
  "coordinates": [
   51.221914,
   51.36585909999999
  ],
  "address": "ЗКО УРАЛЬСК УЛИЦА ЖУКОВА 6"
 },
 {
  "type": "Point",
  "coordinates": [
   51.20637019999999,
   51.3580129
  ],
  "address": "ЗКО УРАЛЬСК Л.ТОЛСТОГО Д.23"
 },
 {
  "type": "Point",
  "coordinates": [
   51.2553043,
   51.4941969
  ],
  "address": "ЗКО УРАЛЬСК ПРОМЫШЛЕННАЯ ЗОНА ЖЕЛАЕВО 4/1"
 },
 {
  "type": "Point",
  "coordinates": [
   51.229456,
   51.469129
  ],
  "address": "ЗКО УРАЛЬСК ЗАТОН ЧАПАЕВА Д.11, КВ.14"
 },
 {
  "type": "Point",
  "coordinates": [
   51.207971,
   51.3798729
  ],
  "address": "ЗКО УРАЛЬСК УЛ. А.КЕРДЕРИ Д. 79 КВ. 7"
 },
 {
  "type": "Point",
  "coordinates": [
   51.1814292,
   51.2973041
  ],
  "address": "ЗКО УРАЛЬСК ЗАЧАГАНСКИЙ МКР КӨКТЕМ, УЛ М. МУНКЕУЛЫ 85/4 ЗКО,  УРАЛЬСК 73"
 },
 {
  "type": "Point",
  "coordinates": [
   51.227821,
   51.3865431
  ],
  "address": "ЗКО УРАЛЬСК ЗАЧАГАНСКИЙ МИКР.САРЫТАУ УЛ. СЫПЫРА ЖЫРАУ Д.16/1"
 },
 {
  "type": "Point",
  "coordinates": [
   49.56797270000001,
   50.8066616
  ],
  "address": "ЗКО УРАЛЬСКПРЗКО,  УРАЛЬСКТ ЕВРАЗИЯ Д.5/1, КВ.1"
 },
 {
  "type": "Point",
  "coordinates": [
   51.2543999,
   51.4384188
  ],
  "address": "ЗКО УРАЛЬСК МКР АСТАНА Д 6, КВ 15"
 },
 {
  "type": "Point",
  "coordinates": [
   51.2441021,
   51.4317375
  ],
  "address": "ЗКО УРАЛЬСК МКР.4 Д.31, КВ.117"
 },
 {
  "type": "Point",
  "coordinates": [
   51.227821,
   51.3865431
  ],
  "address": "ЗКО УРАЛЬСК САДОВОДЧЕСКОЕ ТОВАРИЩЕСТВО РОМАШКА Д. 42"
 },
 {
  "type": "Point",
  "coordinates": [
   51.2198277,
   51.3656915
  ],
  "address": "ЗКО УРАЛЬСК КАСЫМА АМАНЖОЛОВА Д.141 КВ.13"
 },
 {
  "type": "Point",
  "coordinates": [
   51.2509082,
   51.3469744
  ],
  "address": "ЗКО УРАЛЬСК ДЕРКУЛ УЛ.Д.20, КВ.2 ЭТАП Д.5"
 },
 {
  "type": "Point",
  "coordinates": [
   51.227821,
   51.3865431
  ],
  "address": "ЗКО УРАЛЬСК ПРОСПЕКТ ДОСТЫҚЗКО,  УРАЛЬСКДРУЖБА Д.159, КВ.7"
 },
 {
  "type": "Point",
  "coordinates": [
   51.17765869999999,
   51.2933396
  ],
  "address": "ЗКО УРАЛЬСК МКР КОКТЕМ,УЛ.М.МОНКЕУЛЫ Д. 81/1 КВ. 49"
 },
 {
  "type": "Point",
  "coordinates": [
   51.175695,
   51.295855
  ],
  "address": "ЗКО УРАЛЬСК МКРН АРМАН УЛ М.МУНКЕУЛЫ 108/1 КВ 63"
 },
 {
  "type": "Point",
  "coordinates": [
   51.2151881,
   51.3547964
  ],
  "address": "ЗКО УРАЛЬСК УЛИЦА НЕУСЫПОВА 96/1"
 },
 {
  "type": "Point",
  "coordinates": [
   51.24392350000001,
   51.398104
  ],
  "address": "ЗКО УРАЛЬСК ВАТУТИНА 133"
 },
 {
  "type": "Point",
  "coordinates": [
   51.1803958,
   51.29543049999999
  ],
  "address": "ЗКО УРАЛЬСК ЗАЧАГАНСКИЙ МКР КӨКТЕМ, УЛ М МУНКЕУЛЫ 83/1 ЗКО,  УРАЛЬСК 129"
 },
 {
  "type": "Point",
  "coordinates": [
   51.2216599,
   51.395984
  ],
  "address": "ЗКО УРАЛЬСК ПРОСПЕКТ ЕВРАЗИЯ 208/1 КВ 42"
 },
 {
  "type": "Point",
  "coordinates": [
   51.210316,
   51.377999
  ],
  "address": "ЗКО УРАЛЬСК УЛИЦА Л.ТОЛСТОГО, Д. 86"
 },
 {
  "type": "Point",
  "coordinates": [
   51.2175842,
   51.3677104
  ],
  "address": "ЗКО УРАЛЬСК УЛИЦА АЛМАЗОВА 58А-18"
 },
 {
  "type": "Point",
  "coordinates": [
   51.2139128,
   51.3744537
  ],
  "address": "ЗКО УРАЛЬСК КУРМАНГАЗЫ Д.161, КВ.75"
 },
 {
  "type": "Point",
  "coordinates": [
   51.2790709,
   51.46424409999999
  ],
  "address": "ЗКО УРАЛЬСК МКРН ЖУЛДЫЗ УЛ 4ЗКО,  УРАЛЬСКАЯ 58"
 },
 {
  "type": "Point",
  "coordinates": [
   51.2085861,
   51.2914173
  ],
  "address": "ЗКО УРАЛЬСК ЗАЧАГАНСКИЙ МИКРОРАЙОН БАЛАУСА, УЛИЦА ЕСЕТ БАТЫРА 30"
 },
 {
  "type": "Point",
  "coordinates": [
   51.2080804,
   51.357229
  ],
  "address": "ЗКО УРАЛЬСК НЕУСЫПОВА Д.26/3, КВ.27"
 },
 {
  "type": "Point",
  "coordinates": [
   51.2398395,
   51.3819263
  ],
  "address": "ЗКО УРАЛЬСК КОКЧЕТАВСКАЯ Д.1 КВ.А"
 },
 {
  "type": "Point",
  "coordinates": [
   51.17765869999999,
   51.2933396
  ],
  "address": "ЗКО УРАЛЬСК МКР.КОКТЕМ,УЛ.МУРАТА МУНКЕУЛЫ Д.81 КВ.12"
 },
 {
  "type": "Point",
  "coordinates": [
   51.2511466,
   51.42610490000001
  ],
  "address": "ЗКО УРАЛЬСК 5 МКР Д.5 КВ.35"
 },
 {
  "type": "Point",
  "coordinates": [
   51.1734235,
   51.275699
  ],
  "address": "ЗКО УРАЛЬСК МКРН АРМАН УЛ. МУРАТА МУНКЕУЛЫ Д.120, КВ.49"
 },
 {
  "type": "Point",
  "coordinates": [
   51.227821,
   51.3865431
  ],
  "address": "ЗКО , УРАЛЬСК Д.К. ЗАЧАГАНСКИЙ 147А"
 },
 {
  "type": "Point",
  "coordinates": [
   51.2313897,
   51.3804195
  ],
  "address": "ЗКО УРАЛЬСК УЛ.КАРБЫШЕВА Д.79"
 },
 {
  "type": "Point",
  "coordinates": [
   51.2525197,
   51.2917298
  ],
  "address": "ЗКО УРАЛЬСК И.АЛТЫНСАРИНА 12/6"
 },
 {
  "type": "Point",
  "coordinates": [
   51.2555552,
   51.44534489999999
  ],
  "address": "ЗКО УРАЛЬСК МКР.ЖАНА ОРДА Д.1, КВ.8"
 },
 {
  "type": "Point",
  "coordinates": [
   51.1807704,
   51.2906904
  ],
  "address": "ЗКО УРАЛЬСК ЗАЧАГАНСКИЙ МКР КОКТЕМ УЛ КАМБАР БАТЫР Д.4,КВ.66"
 },
 {
  "type": "Point",
  "coordinates": [
   51.2085117,
   51.38642549999999
  ],
  "address": "ЗКО УРАЛЬСК УЛ.О.ИСАЕВА Д.2, КВ.7"
 },
 {
  "type": "Point",
  "coordinates": [
   51.227821,
   51.3865431
  ],
  "address": "ЗКО УРАЛЬСК КРУГЛООЗЕРНОВСКИЙ, СЕРЕБРЯКОВО УЛ.АҚМЕШІТ Д.2"
 },
 {
  "type": "Point",
  "coordinates": [
   51.1814292,
   51.2973041
  ],
  "address": "ЗКО УРАЛЬСК ЗАЧАГАНСКИЙ МКР. КӨКТЕМ, УЛ. МУРАТА МУНКЕУЛЫ Д.85/5, КВ.144"
 },
 {
  "type": "Point",
  "coordinates": [
   51.2543999,
   51.4384188
  ],
  "address": "ЗКО УРАЛЬСК МКР АСТАНА Д 5, КВ 14"
 },
 {
  "type": "Point",
  "coordinates": [
   51.2146023,
   51.3691926
  ],
  "address": "ЗКО УРАЛЬСК ЕВРАЗИЯ Д.54, КВ.35"
 },
 {
  "type": "Point",
  "coordinates": [
   51.2387926,
   51.4115024
  ],
  "address": "ЗКО УРАЛЬСК УЛ.ГРОМОВА, Д.2/1, КВ.104"
 },
 {
  "type": "Point",
  "coordinates": [
   51.1880556,
   51.3258333
  ],
  "address": "ЗКО УРАЛЬСК ЗАЧАГАНСК КУЛТЕГИН 38"
 },
 {
  "type": "Point",
  "coordinates": [
   51.1880556,
   51.3258333
  ],
  "address": "ЗКО УРАЛЬСК ЗАЧАГАНСК УЛ СОЛОМИХИНСКАЯ 27"
 },
 {
  "type": "Point",
  "coordinates": [
   51.227821,
   51.3865431
  ],
  "address": "ЗКО УРАЛЬСК ИСАТАЙЗКО,  УРАЛЬСКМАХАМБЕТ 91"
 },
 {
  "type": "Point",
  "coordinates": [
   51.2167774,
   51.3753223
  ],
  "address": "ЗКО УРАЛЬСК ЕВРАЗИИ Д.55, КВ.6"
 },
 {
  "type": "Point",
  "coordinates": [
   51.2240602,
   51.402204
  ],
  "address": "ЗКО УРАЛЬСК ЕВРАЗИЯ Д 171 КВ 6"
 },
 {
  "type": "Point",
  "coordinates": [
   51.2124065,
   51.3777449
  ],
  "address": "ЗКО УРАЛЬСК УЛ.АБУБАКИР КЕРДЕРИ, Д.129, КВ.59"
 },
 {
  "type": "Point",
  "coordinates": [
   49.5610286,
   50.3492725
  ],
  "address": "ЗКО УРАЛЬСК ДЖАНГАЛИНСКИЙ ПЯТИМАРСКИЙ, БОРЫК УЛ. БОРЫК 15"
 },
 {
  "type": "Point",
  "coordinates": [
   51.227821,
   51.3865431
  ],
  "address": "ЗКО УРАЛЬСК ТЕРЕКТЫ 1"
 },
 {
  "type": "Point",
  "coordinates": [
   51.2441021,
   51.4317375
  ],
  "address": "ЗКО УРАЛЬСК МКРН 4 Д.19, КВ.19"
 },
 {
  "type": "Point",
  "coordinates": [
   51.227821,
   51.3865431
  ],
  "address": "ЗКО УРАЛЬСК ДЧК ЗАЧАГАНСКИЙ Д 799 А"
 },
 {
  "type": "Point",
  "coordinates": [
   51.227821,
   51.3865431
  ],
  "address": "ЗКО УРАЛЬСК ЗАЧАГАНСКИЙ МИКР САРЫТАУ, УЛИЦА СУЛТАНА БЕЙБАРЫСА 3/1А"
 },
 {
  "type": "Point",
  "coordinates": [
   51.227821,
   51.3865431
  ],
  "address": "ЗКО УРАЛЬСК УЛ. ИМ. Н.СДЫКОВА Д.64, КВ.26"
 },
 {
  "type": "Point",
  "coordinates": [
   51.2278483,
   51.4392824
  ],
  "address": "ЗКО УРАЛЬСК УЛИЦА ҚОҒАЛЫ 2"
 },
 {
  "type": "Point",
  "coordinates": [
   51.2017962,
   51.373759
  ],
  "address": "ЗКО УРАЛЬСК ЗАЧАГАНСКИЙ, УЛ.АТАМЕКЕН, Д.173"
 },
 {
  "type": "Point",
  "coordinates": [
   51.2658438,
   51.4602195
  ],
  "address": "ЗКО УРАЛЬСК УЛ. САМАЛ 123"
 },
 {
  "type": "Point",
  "coordinates": [
   51.227821,
   51.3865431
  ],
  "address": "ЗКО УРАЛЬСК САДОВОДЧЕСКОЕ ТОВАРИЩЕСТВО СТЕНОВИК Д 21"
 },
 {
  "type": "Point",
  "coordinates": [
   51.1734235,
   51.275699
  ],
  "address": "ЗКО УРАЛЬСК ЗАЧАГАНСК , МКР. КӨКТЕМ, УЛ. МУРАТА МУНКЕУЛЫ Д.113, КВ.127"
 },
 {
  "type": "Point",
  "coordinates": [
   49.7134509,
   51.6584253
  ],
  "address": "ЗКО АКЖАИКСКИЙ РЗКО,  УРАЛЬСКН С.ЛБИЩЕНСК УЛ.КУЛЫШЕВ 3"
 },
 {
  "type": "Point",
  "coordinates": [
   51.2391744,
   51.3775438
  ],
  "address": "ЗКО УРАЛЬСК ШТЫБЫ 43"
 },
 {
  "type": "Point",
  "coordinates": [
   51.227821,
   51.3865431
  ],
  "address": "ЗКО УРАЛЬСК Д.К.ЗАЧАГАНСКИЙ, Д.1147"
 },
 {
  "type": "Point",
  "coordinates": [
   51.218252,
   51.3667091
  ],
  "address": "ЗКО УРАЛЬСК АМАНЖОЛОВА Д.133, КВ.47"
 },
 {
  "type": "Point",
  "coordinates": [
   51.1995426,
   51.3797869
  ],
  "address": "ЗКО УРАЛЬСКУЛ.КУРМАНГАЗЫ,Д.33.КВ.36"
 },
 {
  "type": "Point",
  "coordinates": [
   51.227821,
   51.3865431
  ],
  "address": "ЗКО УРАЛЬСК МКР Д.А.КУНАЕВА Д 59,КВ 73"
 },
 {
  "type": "Point",
  "coordinates": [
   51.1880556,
   51.3258333
  ],
  "address": "ЗКО УРАЛЬСК ЗАЧАГАНСК,Д. 881"
 },
 {
  "type": "Point",
  "coordinates": [
   51.227821,
   51.3865431
  ],
  "address": "ЗКО УРАЛЬСК УЛ Шиели Д 20"
 },
 {
  "type": "Point",
  "coordinates": [
   51.1862389,
   51.32273559999999
  ],
  "address": "ЗКО УРАЛЬСК ЖАНГИР ХАНА 26"
 },
 {
  "type": "Point",
  "coordinates": [
   51.21274289999999,
   51.38492859999999
  ],
  "address": "ЗКО УРАЛЬСК УЛ.О.ИСАЕВА Д.126"
 },
 {
  "type": "Point",
  "coordinates": [
   51.1932536,
   51.37951839999999
  ],
  "address": "ЗКО УРАЛЬСК УЛ. СТУДЕНЧЕСКАЯ Д.3, КВ.304"
 },
 {
  "type": "Point",
  "coordinates": [
   51.227821,
   51.3865431
  ],
  "address": "УРАЛЬСК САДОВОДЧЕСКОЕ ТОВАРИЩЕСТВО ЗАЧАГАНСКИЙ 1177А"
 },
 {
  "type": "Point",
  "coordinates": [
   51.17765869999999,
   51.2933396
  ],
  "address": "ЗКО УРАЛЬСК МКР. КОКТЕМ УЛ.М.МУНКЕУЛЫ Д.81/1,КВ.54"
 },
 {
  "type": "Point",
  "coordinates": [
   51.2149647,
   51.3567195
  ],
  "address": "ЗКО УРАЛЬСК ПОБЕДЫ 18/1"
 },
 {
  "type": "Point",
  "coordinates": [
   51.22995359999999,
   51.4665754
  ],
  "address": "ЗКО УРАЛЬСК МЯСОКОМБИНАТ 77"
 },
 {
  "type": "Point",
  "coordinates": [
   51.2286029,
   51.3594618
  ],
  "address": "ЗКО УРАЛЬСК МКР.САРЫАРКА,АБЫЛАЙ ХАН 108"
 },
 {
  "type": "Point",
  "coordinates": [
   51.2179862,
   51.3873022
  ],
  "address": "ЗКО ПРОСПЕКТ ЕВРАЗИЯ Д.102, КВ.21"
 },
 {
  "type": "Point",
  "coordinates": [
   51.1880556,
   51.3258333
  ],
  "address": "ЗКО УРАЛЬСК ЗАЧАГАНСКИЙ МКР САРЫТАУ, УЛИЦА СУЛТАНА БЕЙБАРЫСА 62"
 },
 {
  "type": "Point",
  "coordinates": [
   51.2509082,
   51.3469744
  ],
  "address": "ЗКО УРАЛЬСК ДЕРКУЛ УСКЕН АУЫЛ 18/1"
 },
 {
  "type": "Point",
  "coordinates": [
   51.17765869999999,
   51.2933396
  ],
  "address": "ЗКО УРАЛЬСК МКР.КОКТЕМ, УЛ.М.МОНКЕУЛЫ Д.81, КВ.82"
 },
 {
  "type": "Point",
  "coordinates": [
   51.0815396,
   51.28531719999999
  ],
  "address": "ЗКО УРАЛЬСК КРУГЛООЗЕРНОЕ МКР АТАМЕКЕН УЛ БАКШАЛЫ Д 8"
 },
 {
  "type": "Point",
  "coordinates": [
   51.1738134,
   51.2911102
  ],
  "address": "ЗКО УРАЛЬСК МКР.АРМАН УЛ.М.ЖУМАБАЕВА 63"
 },
 {
  "type": "Point",
  "coordinates": [
   51.227821,
   51.3865431
  ],
  "address": "ЗКО УРАЛЬСК МКР КАДЫР МЫРЗА АЛИ Д.20, КВ.15"
 },
 {
  "type": "Point",
  "coordinates": [
   51.20795889999999,
   51.3832174
  ],
  "address": "ЗКО УРАЛЬСК МУХИТА Д.46/3 КВ.13"
 },
 {
  "type": "Point",
  "coordinates": [
   51.1803958,
   51.29543049999999
  ],
  "address": "ЗКО УРАЛЬСК ЗАЧАГАНСКИЙ МКР КӨКТЕМ, УЛ МУРАТА МУНКЕУЛЫ Д.83/2, КВ.38"
 },
 {
  "type": "Point",
  "coordinates": [
   51.2282191,
   51.4327623
  ],
  "address": "ЗКО УРАЛЬСК ГАГАРИНА Д.2/2, КВ.76"
 },
 {
  "type": "Point",
  "coordinates": [
   51.2071902,
   51.3776451
  ],
  "address": "ЗКО УРАЛЬСК КУРМАНГАЗЫ 97"
 },
 {
  "type": "Point",
  "coordinates": [
   51.1734235,
   51.275699
  ],
  "address": "ЗКО УРАЛЬСК МИКРОРАЙОН КӨКТЕМ, УЛИЦА МУРАТА МУНКЕУЛЫ Д.91, КВ.91"
 },
 {
  "type": "Point",
  "coordinates": [
   51.2128924,
   51.3695574
  ],
  "address": "ЗКО УРАЛЬСК УЛИЦА М.ИХСАНОВА Д.73/2, КВ.90"
 },
 {
  "type": "Point",
  "coordinates": [
   51.221914,
   51.36585909999999
  ],
  "address": "ЗКО УРАЛЬСК УЛ. ЖУКОВА 6"
 },
 {
  "type": "Point",
  "coordinates": [
   51.2441021,
   51.4317375
  ],
  "address": "ЗКО УРАЛЬСК 4 МКРН Д.4А КВ.56"
 },
 {
  "type": "Point",
  "coordinates": [
   51.227821,
   51.3865431
  ],
  "address": "ЗКО УРАЛЬСК УЛИЦА ХИУАЗ ДОСПАНОВА Д.59, КВ.51"
 },
 {
  "type": "Point",
  "coordinates": [
   51.2439688,
   51.4035372
  ],
  "address": "ЗКО УРАЛЬСК С.ТЮЛЕНИНА, Д.50, КВ.10"
 },
 {
  "type": "Point",
  "coordinates": [
   51.227821,
   51.3865431
  ],
  "address": "ЗКО УРАЛЬСК C/Т ЛОКОМОТИВ Д 357"
 },
 {
  "type": "Point",
  "coordinates": [
   51.227821,
   51.3865431
  ],
  "address": "ЗКО УРАЛЬСК Д.К ТАМАРИКС 34"
 },
 {
  "type": "Point",
  "coordinates": [
   51.2257739,
   51.3626176
  ],
  "address": "ЗКО УРАЛЬСК УЛИЦА АЛИИ МОЛДАГУЛОВОЙ, Д.3, КВ.81"
 },
 {
  "type": "Point",
  "coordinates": [
   51.227821,
   51.3865431
  ],
  "address": "ЗКО УРАЛЬСК САДОВОДЧЕСКОЕ ТОВАРИЩЕСТВО ДОРОЖНИК 69"
 },
 {
  "type": "Point",
  "coordinates": [
   51.227821,
   51.3865431
  ],
  "address": "ЗКО УРАЛЬСК МИКРОРАЙОН ЖЕҢІС Д 8/1,КВ 68"
 },
 {
  "type": "Point",
  "coordinates": [
   51.19828320000001,
   51.37584630000001
  ],
  "address": "ЗКО УРАЛЬСК УЛ.КОММУНИСТИЧЕСКАЯ Д.73, КВ.2"
 },
 {
  "type": "Point",
  "coordinates": [
   51.2509082,
   51.3469744
  ],
  "address": "ЗКО УРАЛЬСК ДЕРКУЛ ДОСПАМБЕТ ЖЫРАУ 2"
 },
 {
  "type": "Point",
  "coordinates": [
   51.17765869999999,
   51.2933396
  ],
  "address": "ЗКО УРАЛЬСК МКР КОКТЕМ УЛ.М.МУНКЕУЛЫ Д.81 КВ.57"
 },
 {
  "type": "Point",
  "coordinates": [
   51.0815396,
   51.28531719999999
  ],
  "address": "ЗКО УРАЛЬСК КРУГЛООЗЕРНЫЙ МКР АТАМЕКЕН ЕНБЕК 25/1"
 },
 {
  "type": "Point",
  "coordinates": [
   51.2376995,
   51.437767
  ],
  "address": "ЗКО УРАЛЬСК ЖАМБЫЛА Д.211, КВ.57"
 },
 {
  "type": "Point",
  "coordinates": [
   51.227821,
   51.3865431
  ],
  "address": "ЗКО УРАЛЬСК УЛИЦА КОКШЕТАУ 1Д"
 },
 {
  "type": "Point",
  "coordinates": [
   51.235675,
   51.39494209999999
  ],
  "address": "ЗКО УРАЛЬСК АБУЛХАИР ХАНА 6/1 ДОМ 1"
 },
 {
  "type": "Point",
  "coordinates": [
   51.1987763,
   51.3866821
  ],
  "address": "ЗКО УРАЛЬСК УЛ. ИМ.Н.САВИЧЕВА, Д.151, КВ.3"
 },
 {
  "type": "Point",
  "coordinates": [
   51.227821,
   51.3865431
  ],
  "address": "ЗКО УРАЛЬСК  КОКШЕТАУ 1 А"
 },
 {
  "type": "Point",
  "coordinates": [
   51.2176194,
   51.3708216
  ],
  "address": "ЗКО УРАЛЬСК УЛ. Х.ЧУРИНА Д. 119/1 КВ. 35"
 },
 {
  "type": "Point",
  "coordinates": [
   51.2093096,
   51.388783
  ],
  "address": "ЗКО УРАЛЬСК УЛ. АЙТИЕВА Д. 32 /1"
 },
 {
  "type": "Point",
  "coordinates": [
   51.227821,
   51.3865431
  ],
  "address": "ЗКО УРАЛЬСК АСКАЙСКАЯ 63/1"
 },
 {
  "type": "Point",
  "coordinates": [
   51.16791019999999,
   51.2954585
  ],
  "address": "ЗКО УРАЛЬСК ЗАЧАГАНСКИЙ МИКРОРАЙОН КЕҢ ДАЛА, УЛИЦА 10 3"
 },
 {
  "type": "Point",
  "coordinates": [
   50.9979628,
   50.1798261
  ],
  "address": "ЗКО ТАСКАЛИНСКИЙ Р.Н, П.АКТАУ, УЛ.АРДАГЕРЛЕР, Д.2, КВ.1"
 },
 {
  "type": "Point",
  "coordinates": [
   51.227821,
   51.3865431
  ],
  "address": "ЗКО УРАЛЬСК УЛИЦА ГЕРОЛЬД БЕЛЬГЕР Д.76, КВ.16"
 },
 {
  "type": "Point",
  "coordinates": [
   51.227821,
   51.3865431
  ],
  "address": "ЗКО УРАЛЬСК ЖАКСЫ АУЫЛ Д.34"
 },
 {
  "type": "Point",
  "coordinates": [
   51.1734235,
   51.275699
  ],
  "address": "ЗКО УРАЛЬСК МКР КОКТЕМ М.МУНКЕУЛЫ Д.91, КВ.89"
 },
 {
  "type": "Point",
  "coordinates": [
   51.2449224,
   51.3963735
  ],
  "address": "ЗКО УРАЛЬСК УЛИЦА МАТРОСОВА Д 66"
 },
 {
  "type": "Point",
  "coordinates": [
   51.22605309999999,
   51.4722025
  ],
  "address": "ЗКО УРАЛЬСК ЗАТОН ЧАПАЕВА Д.23/1, КВ.9"
 },
 {
  "type": "Point",
  "coordinates": [
   51.2608776,
   51.3013566
  ],
  "address": "ЗКО УРАЛЬСК УЛ СЕВЕРНАЯ 4"
 },
 {
  "type": "Point",
  "coordinates": [
   51.227821,
   51.3865431
  ],
  "address": "ЗКО УРАЛЬСК САДОВОДЧЕСКОЕ ТОВАРИЩЕСТВО РЯБИНКА 16"
 },
 {
  "type": "Point",
  "coordinates": [
   51.227821,
   51.3865431
  ],
  "address": "ЗКО УРАЛЬСК 2ЗКО,  УРАЛЬСКЙ КИЛОМЕТР 20 КВ.125"
 },
 {
  "type": "Point",
  "coordinates": [
   51.2182438,
   51.376183
  ],
  "address": "ЗКО УРАЛЬСК УЛ. ПОБЕДЫ Д. 3"
 },
 {
  "type": "Point",
  "coordinates": [
   51.2465904,
   51.423839
  ],
  "address": "ЗКО УРАЛЬСК ДЧК.АРМАН Д.101"
 },
 {
  "type": "Point",
  "coordinates": [
   51.2543999,
   51.4384188
  ],
  "address": "ЗКО УРАЛЬСК МКР АСТАНА Д.5 КВ.57"
 },
 {
  "type": "Point",
  "coordinates": [
   51.1814292,
   51.2973041
  ],
  "address": "ЗКО УРАЛЬСК МКР КОКТЕМ УЛ.МУНКЕУЛЫ Д.85/2 КВ.169"
 },
 {
  "type": "Point",
  "coordinates": [
   51.2282191,
   51.4327623
  ],
  "address": "ЗКО УРАЛЬСК УЛИЦА ГАГАРИНА Д.2/2, КВ.38"
 },
 {
  "type": "Point",
  "coordinates": [
   51.227821,
   51.3865431
  ],
  "address": "ЗКО УРАЛЬСК УЛИЦА А.ӘЙТИЕВ, Д.70, КВ.11"
 },
 {
  "type": "Point",
  "coordinates": [
   51.17765869999999,
   51.2933396
  ],
  "address": "ЗКО УРАЛЬСК МКР КОКТЕМ УЛ М. МУНКЕУЛЫ Д 81/1, КВ 42"
 },
 {
  "type": "Point",
  "coordinates": [
   51.1886778,
   51.32418320000001
  ],
  "address": "ЗКО УРАЛЬСК 25 ЧАПАЕВСКОЙ ДИВИЗИИ Д.5"
 },
 {
  "type": "Point",
  "coordinates": [
   51.2223756,
   51.37240629999999
  ],
  "address": "ЗКО УРАЛЬСК УЛИЦА КУРМАНГАЗЫ 5, 2"
 },
 {
  "type": "Point",
  "coordinates": [
   51.227821,
   51.3865431
  ],
  "address": "ЗКО УРАЛЬСК ЗАЧАГАНСКИЙ 497"
 },
 {
  "type": "Point",
  "coordinates": [
   51.2491698,
   51.4190508
  ],
  "address": "ЗКО УРАЛЬСК МКР.СТРОИТЕЛЬ Д.16/2, КВ.55"
 },
 {
  "type": "Point",
  "coordinates": [
   51.2086123,
   51.3617754
  ],
  "address": "ЗКО УРАЛЬСК УЛИЦА Т.МАСИНА Д 163"
 },
 {
  "type": "Point",
  "coordinates": [
   51.0815396,
   51.28531719999999
  ],
  "address": "ЗКО УРАЛЬСК КРУГЛООЗЕРНОЕ БОГЕНБАЙ БАТЫР Д.5"
 },
 {
  "type": "Point",
  "coordinates": [
   51.227821,
   51.3865431
  ],
  "address": "ЗКО УРАЛЬСК МКР.Д.А.КУНАЕВА, Д.50, КВ.78"
 },
 {
  "type": "Point",
  "coordinates": [
   51.23697019999999,
   51.405704
  ],
  "address": "ЗКО УРАЛЬСК Л.И.МИРЗОЯНА Д.2/1, КВ.70"
 },
 {
  "type": "Point",
  "coordinates": [
   51.2459399,
   51.4049527
  ],
  "address": "ЗКО УРАЛЬСК УЛ. МАТРОСОВА Д.56/1, КВ.15"
 },
 {
  "type": "Point",
  "coordinates": [
   51.1880556,
   51.3258333
  ],
  "address": "ЗКО УРАЛЬСК ЗАЧАГАНСК МКР.КОКТЕМ УЛ.4ЗКО,  УРАЛЬСКЯ 21/2"
 },
 {
  "type": "Point",
  "coordinates": [
   51.227821,
   51.3865431
  ],
  "address": "ЗКО УРАЛЬСК АМАНЖОЛОВ Д.87, КВ.4"
 },
 {
  "type": "Point",
  "coordinates": [
   51.2003123,
   51.3639531
  ],
  "address": "ЗКО УРАЛЬСК ДЕРКУЛ, УЛИЦА Ш.ЖЕКСЕНБАЕВА 17, КВ.2"
 },
 {
  "type": "Point",
  "coordinates": [
   51.2003123,
   51.3639531
  ],
  "address": "ЗКО УРАЛЬСК УЛ.Ш.ЖЕКСЕНБАЕВА Д.17, КВ.2"
 },
 {
  "type": "Point",
  "coordinates": [
   51.1734235,
   51.275699
  ],
  "address": "ЗКО УРАЛЬСК  ЗАЧАГАНСК МКР КОКТЕМ УЛ М.МУНКЕУЛЫ Д 113 КВ 61"
 },
 {
  "type": "Point",
  "coordinates": [
   51.2790709,
   51.46424409999999
  ],
  "address": "ЗКО УРАЛЬСК МКРН ЖУЛДЫЗ УЛ АЗЕРБАЙЖАН МАМБЕТОВА Д 5"
 },
 {
  "type": "Point",
  "coordinates": [
   51.175695,
   51.295855
  ],
  "address": "ЗКО УРАЛЬСК МКР.АРМАН УЛ.М.МУНКЕУЛЫ Д. 108/4 КВ. 4"
 },
 {
  "type": "Point",
  "coordinates": [
   51.1738134,
   51.2911102
  ],
  "address": "ЗКО УРАЛЬСК МКР АРМАН 290"
 },
 {
  "type": "Point",
  "coordinates": [
   51.0815396,
   51.28531719999999
  ],
  "address": "ЗКО П.КРУГЛООЗЕРНОЕ УРАЛЬСК ЧАПАЕВА 8"
 },
 {
  "type": "Point",
  "coordinates": [
   51.227821,
   51.3865431
  ],
  "address": "ЗКО УРАЛЬСК МИКРОРАЙОН САРЫТАУ, УЛИЦА БИРЖАН САЛА 16"
 },
 {
  "type": "Point",
  "coordinates": [
   51.227821,
   51.3865431
  ],
  "address": "ЗКО УРАЛЬСК СЗКО,  УРАЛЬСКВОСТОК 2 Д.15/2, КВ.111"
 },
 {
  "type": "Point",
  "coordinates": [
   51.2543999,
   51.4384188
  ],
  "address": "ЗКО УРАЛЬСК МКР АСТАНА Д 14, КВ 63"
 },
 {
  "type": "Point",
  "coordinates": [
   51.2001305,
   51.37942229999999
  ],
  "address": "ЗКО УРАЛЬСК УЛ.ДАУЛЕТКЕРЕЯ Д.139"
 },
 {
  "type": "Point",
  "coordinates": [
   51.1880556,
   51.3258333
  ],
  "address": "ЗКО УРАЛЬСК ЗАЧАГАНСК УШКЫН Д.12"
 },
 {
  "type": "Point",
  "coordinates": [
   51.227821,
   51.3865431
  ],
  "address": "ЗКО УРАЛЬСК ДОСТЫҚЗКО,  УРАЛЬСКДРУЖБА 90"
 },
 {
  "type": "Point",
  "coordinates": [
   51.227821,
   51.3865431
  ],
  "address": "ЗКО УРАЛЬСК ЗАЧАГАНСКИЙ МКР БОЛАШАК УЛ ТАБЫН БУКЕНБАЙ 31"
 },
 {
  "type": "Point",
  "coordinates": [
   51.1880556,
   51.3258333
  ],
  "address": "ЗКО УРАЛЬСК ЗАЧАГАНСК МКРН САРЫТАУ УЛ БИРЖАН САЛА Д 3"
 },
 {
  "type": "Point",
  "coordinates": [
   51.2659707,
   51.3821716
  ],
  "address": "ЗКО УРАЛЬСК САДОВОДЧЕСКОЕ ТОВАРИЩЕСТВО ЕЛОЧКА УЛ.ЛЕСНАЯ Д.28"
 },
 {
  "type": "Point",
  "coordinates": [
   51.227821,
   51.3865431
  ],
  "address": "БҚО ОРАЛ УЛИЦА КЕМЕНГЕР 26"
 },
 {
  "type": "Point",
  "coordinates": [
   51.227821,
   51.3865431
  ],
  "address": "ЗКО УРАЛЬСК УЛ САМАР Д.103, КВ.22"
 },
 {
  "type": "Point",
  "coordinates": [
   51.227821,
   51.3865431
  ],
  "address": "ЗКО УРАЛЬСК МКР Д.А. КУНАЕВА Д 59, КВ 31"
 },
 {
  "type": "Point",
  "coordinates": [
   51.1803958,
   51.29543049999999
  ],
  "address": "ЗКО УРАЛЬСК  МИКРОРАЙОН КӨКТЕМ, УЛИЦА МУРАТА МУНКЕУЛЫ Д.83/2, КВ.68"
 },
 {
  "type": "Point",
  "coordinates": [
   51.2441021,
   51.4317375
  ],
  "address": "ЗКО УРАЛЬСК МКРН 4 Д. 9 КВ. 16"
 },
 {
  "type": "Point",
  "coordinates": [
   51.2286029,
   51.3594618
  ],
  "address": "ЗКО УРАЛЬСК МКР САРЫАРКА АБЫЛАЙ ХАН 41"
 },
 {
  "type": "Point",
  "coordinates": [
   51.17834449999999,
   51.2951238
  ],
  "address": "ЗКО УРАЛЬСК МУРАТ МУНКЕУЛЫ Д.81/1, КВ.70"
 },
 {
  "type": "Point",
  "coordinates": [
   51.2211226,
   51.3611333
  ],
  "address": "ЗКО УРАЛЬСК СУНДЕТКАЛИ ЕСКАЛИЕВА Д.295 КВ.4"
 },
 {
  "type": "Point",
  "coordinates": [
   51.2491698,
   51.4190508
  ],
  "address": "ЗКО УРАЛЬСК МКРН СТРОИТЕЛЬ КӨШ Д.36, КВ.15"
 },
 {
  "type": "Point",
  "coordinates": [
   51.2260018,
   51.4140386
  ],
  "address": "ЗКО УРАЛЬСК ГАГАРИНА Д.1/2 КВ.22"
 },
 {
  "type": "Point",
  "coordinates": [
   51.227821,
   51.3865431
  ],
  "address": "ЗКО УРАЛЬСК ДЧК.РЕЧНИК Д.236"
 },
 {
  "type": "Point",
  "coordinates": [
   51.227821,
   51.3865431
  ],
  "address": "ЗКО УРАЛЬСК ПЕРЕВАЛОЧНОЗКО,  УРАЛЬСКНАБЕРЕЖНАЯ 23/2"
 },
 {
  "type": "Point",
  "coordinates": [
   51.2600792,
   51.4490121
  ],
  "address": "ЗКО УРАЛЬСК УЛ СВЕТЛАЯ 102Б"
 },
 {
  "type": "Point",
  "coordinates": [
   51.227821,
   51.3865431
  ],
  "address": "ЗКО УРАЛЬСК КАДЫР МЫРЗА АЛИ Д.7, КВ.28"
 },
 {
  "type": "Point",
  "coordinates": [
   51.227821,
   51.3865431
  ],
  "address": "ЗКО УРАЛЬСК МИКРОРАЙОН АТАМЕКЕН, УЛИЦА ШАЛКИИЗ ЖЫРАУ 52"
 },
 {
  "type": "Point",
  "coordinates": [
   51.1880556,
   51.3258333
  ],
  "address": "ЗКО УРАЛЬСК САДОВОДЧЕСКОЕ ТОВАРИЩЕСТВО ЗАЧАГАНСКИЙ, Д. 647/2"
 },
 {
  "type": "Point",
  "coordinates": [
   51.2248058,
   51.3797094
  ],
  "address": "ЗКО УРАЛЬСК А.МОЛДАГУЛОВОЙ, Д.15, КВ.10"
 },
 {
  "type": "Point",
  "coordinates": [
   51.2378319,
   51.3664827
  ],
  "address": "ЗКО УРАЛЬСК ДАМБОВЫЙ ТУПИК Д.3/1, КВ.2"
 },
 {
  "type": "Point",
  "coordinates": [
   51.227821,
   51.3865431
  ],
  "address": "ЗКО УРАЛЬСК МКР КАДР МЫРЗА АЛИ 20"
 },
 {
  "type": "Point",
  "coordinates": [
   51.16791019999999,
   51.2954585
  ],
  "address": "ЗКО УРАЛЬСК МИКРОРАЙОН КЕҢ ДАЛА, УЛИЦА МАШХУР ЖУСУП КОПЕЕВА 7/1"
 },
 {
  "type": "Point",
  "coordinates": [
   51.2006483,
   51.3678463
  ],
  "address": "ЗКО УРАЛЬСК КОМСОМОЛЬСКАЯ Д.119, КВ.7"
 },
 {
  "type": "Point",
  "coordinates": [
   51.227821,
   51.3865431
  ],
  "address": "ЗКО УРАЛЬСК САДОВОДЧЕСКОЕ ТОВАРИЩЕСТВО СТЕНОВИК 252"
 },
 {
  "type": "Point",
  "coordinates": [
   51.2543999,
   51.4384188
  ],
  "address": "ЗКО УРАЛЬСК МКР.АСТАНА Д18 КВ28"
 },
 {
  "type": "Point",
  "coordinates": [
   51.1888413,
   51.31651340000001
  ],
  "address": "ЗКО УРАЛЬСК ТЕМИРТАУСКАЯ Д.21, КВ.9"
 },
 {
  "type": "Point",
  "coordinates": [
   51.2345889,
   51.43318720000001
  ],
  "address": "ЗКО УРАЛЬСК С.ДАТОВА Д.17/1, КВ.5"
 },
 {
  "type": "Point",
  "coordinates": [
   51.227821,
   51.3865431
  ],
  "address": "ЗКО УРАЛЬСК ДЧК ЗАЧАГАНСКИЙ 323"
 },
 {
  "type": "Point",
  "coordinates": [
   51.227821,
   51.3865431
  ],
  "address": "ЗКО УРАЛЬСК ДЧК ЗАЧАГАНСКИЙ 4151"
 },
 {
  "type": "Point",
  "coordinates": [
   51.1880556,
   51.3258333
  ],
  "address": "ЗКО УРАЛЬСК САДОВОДЧЕСКОЕ ТОВАРИЩЕСТВО ЗАЧАГАНСКИЙ 589A"
 },
 {
  "type": "Point",
  "coordinates": [
   51.227821,
   51.3865431
  ],
  "address": "ЗКО УРАЛЬСК МКРН ЖҰЛДЫЗ УЛ. СЫҒАНАҚ Д.16/1"
 },
 {
  "type": "Point",
  "coordinates": [
   51.227821,
   51.3865431
  ],
  "address": "ЗКО УРАЛЬСК УЛИЦА КЕМЕНГЕР 6"
 },
 {
  "type": "Point",
  "coordinates": [
   51.2509082,
   51.3469744
  ],
  "address": "ЗКО УРАЛЬСК П.ДЕРКУЛ МИКРОРАЙОН УСКЕН 23"
 },
 {
  "type": "Point",
  "coordinates": [
   51.2061345,
   51.3784937
  ],
  "address": "ЗКО УРАЛЬСК МКР ЖҰЛДЫЗ, УЛ.АЗЕРБАЙЖАН МАМБЕТОВ 41"
 },
 {
  "type": "Point",
  "coordinates": [
   51.2246363,
   51.37123260000001
  ],
  "address": "ЗКО УРАЛЬСК УЛ.КУРМАНГАЗЫ ДОМ.198 КВ.22"
 },
 {
  "type": "Point",
  "coordinates": [
   51.2297726,
   51.4384831
  ],
  "address": "ЗКО УРАЛЬСК УЛИЦА ЖДАНОВА Д.14, КВ.48"
 },
 {
  "type": "Point",
  "coordinates": [
   51.1734235,
   51.275699
  ],
  "address": "ЗКО УРАЛЬСК МКРН АРМАН, УЛ.МУРАТА МУНКЕУЛЫ Д.120 КВ.43"
 },
 {
  "type": "Point",
  "coordinates": [
   51.2238141,
   51.3970061
  ],
  "address": "ЗКО УРАЛЬСК ПРОСПЕКТ АБАЯ Д.117/1, КВ.29"
 },
 {
  "type": "Point",
  "coordinates": [
   51.227821,
   51.3865431
  ],
  "address": "ЗКО УРАЛЬСК МКР.ИМ.Д.А.КУНАЕВА, Д.71, КВ.100"
 },
 {
  "type": "Point",
  "coordinates": [
   51.227821,
   51.3865431
  ],
  "address": "ЗКО УРАЛЬСК УЛ. А.КОРОВИНА 1/1"
 },
 {
  "type": "Point",
  "coordinates": [
   51.227821,
   51.3865431
  ],
  "address": "ЗКО УРАЛЬСК С/Т ЗАЧАГАНСКИЙ Д.579"
 },
 {
  "type": "Point",
  "coordinates": [
   51.1995426,
   51.3797869
  ],
  "address": "ЗКО УРАЛЬСК КУРМАНГАЗЫ Д.33,КВ.93"
 },
 {
  "type": "Point",
  "coordinates": [
   51.2555552,
   51.44534489999999
  ],
  "address": "ЗКО УРАЛЬСК ЖАНА ОРДА Д.3, КВ.54"
 },
 {
  "type": "Point",
  "coordinates": [
   51.2543999,
   51.4384188
  ],
  "address": "ЗКО УРАЛЬСК МКР.АСТАНА Д.5, КВ.1"
 },
 {
  "type": "Point",
  "coordinates": [
   51.2555552,
   51.44534489999999
  ],
  "address": "ЗКО УРАЛЬСК МКРН ЖАНА ОРДА Д.4, КВ.117"
 },
 {
  "type": "Point",
  "coordinates": [
   51.1880556,
   51.3258333
  ],
  "address": "ЗКО УРАЛЬСК ЗАЧАГАНСКИЙ МКР УЛ СУЛТАНА БЕЙБАРЫСА 35/1"
 },
 {
  "type": "Point",
  "coordinates": [
   51.227821,
   51.3865431
  ],
  "address": "ЗКО УРАЛЬСК ДОСТЫКЗКО,  УРАЛЬСКДРУЖБА 233, 62"
 },
 {
  "type": "Point",
  "coordinates": [
   51.2543999,
   51.4384188
  ],
  "address": "ЗКО УРАЛЬСК МКР АСТАНА Д.25, КВ.39"
 },
 {
  "type": "Point",
  "coordinates": [
   51.21475969999999,
   51.3712661
  ],
  "address": "ЗКО УРАЛЬСК ДЧК.ЁЛОЧКА 83"
 },
 {
  "type": "Point",
  "coordinates": [
   51.1880556,
   51.3258333
  ],
  "address": "ЗКО УРАЛЬСК ЗАЧАГАНСК МКР САРЫТАУ УЛ КАЗАНГАПА 13"
 },
 {
  "type": "Point",
  "coordinates": [
   51.2491698,
   51.4190508
  ],
  "address": "ЗКО УРАЛЬСК СТРОИТЕЛЬ Д. 30 КВ. 63"
 },
 {
  "type": "Point",
  "coordinates": [
   51.227821,
   51.3865431
  ],
  "address": "ЗКО УРАЛЬСК Д.К. СТЕНОВИК 222"
 },
 {
  "type": "Point",
  "coordinates": [
   51.1880556,
   51.3258333
  ],
  "address": "ЗКО УРАЛЬСК ЗАЧАГАНСК МКР. БОЛАШАК, УЛ. БӨКЕН БИ Д 50"
 },
 {
  "type": "Point",
  "coordinates": [
   51.227821,
   51.3865431
  ],
  "address": "ЗКО УРАЛЬСК СЫБАГА,Д 5"
 },
 {
  "type": "Point",
  "coordinates": [
   51.2427682,
   51.4086686
  ],
  "address": "ЗКО УРАЛЬСК УЛ. У.ГРОМОВОЙ Д. 26 КВ. 103"
 },
 {
  "type": "Point",
  "coordinates": [
   51.1880556,
   51.3258333
  ],
  "address": "ЗКО УРАЛЬСК ЗАЧАГАНСК ЖЕРҰЙЫҚ 2"
 },
 {
  "type": "Point",
  "coordinates": [
   51.2356342,
   51.4490972
  ],
  "address": "ЗКО УРАЛЬСК ГАГАРИНА Д.113/2 КВ.48"
 },
 {
  "type": "Point",
  "coordinates": [
   51.2219725,
   51.3831315
  ],
  "address": "ЗКО УРАЛЬСК Р.ЕГИЗБАЕВА Д 169/1"
 },
 {
  "type": "Point",
  "coordinates": [
   51.2203155,
   51.3718741
  ],
  "address": "ЗКО УРАЛЬСК КУРМАНГАЗЫ Д.177, КВ.28"
 },
 {
  "type": "Point",
  "coordinates": [
   51.1738134,
   51.2911102
  ],
  "address": "ЗКО УРАЛЬСК ЗАЧАГАНСК, МИКРОРАЙОН АРМАН, Д. 32"
 },
 {
  "type": "Point",
  "coordinates": [
   51.1880556,
   51.3258333
  ],
  "address": "ЗКО УРАЛЬСК ЗАЧАГАНСК , МКР САРЫТАУ УЛ КУЛТЕГИН Д. 26"
 },
 {
  "type": "Point",
  "coordinates": [
   51.227821,
   51.3865431
  ],
  "address": "ЗКО УРАЛЬСК МКРН КӨКЖИЕК УЛ. ОСПАН БАТЫР ДОМ 11"
 },
 {
  "type": "Point",
  "coordinates": [
   51.254287,
   51.42249169999999
  ],
  "address": "УРАЛЬСК УЛ. УЛИЦА ГЕРОЯ СОВЕТСКОГО СОЮЗА Г.РАМАЕВА, Д. 17"
 },
 {
  "type": "Point",
  "coordinates": [
   51.19828889999999,
   51.375874
  ],
  "address": "ЗКО УРАЛЬСК ГУМАРА КАРАША 102"
 },
 {
  "type": "Point",
  "coordinates": [
   51.1833062,
   51.2740586
  ],
  "address": "ЗКО УРАЛЬСК МКР. КЕНДАЛА Д.207"
 },
 {
  "type": "Point",
  "coordinates": [
   51.200697,
   51.3780452
  ],
  "address": "ЗКО УРАЛЬСК УЛ.ХАМИДА ЧУРИНА 42"
 },
 {
  "type": "Point",
  "coordinates": [
   51.2648914,
   51.404706
  ],
  "address": "ЗКО УРАЛЬСК УЛ. ИЛЬЯС ЕСЕНБЕРЛИН Д. 2"
 },
 {
  "type": "Point",
  "coordinates": [
   51.227821,
   51.3865431
  ],
  "address": "ЗКО УРАЛЬСК МКР СЕВЕРОЗКО,  УРАЛЬСКВОСТОК 2 Д.21, КВ.27"
 },
 {
  "type": "Point",
  "coordinates": [
   51.1734235,
   51.275699
  ],
  "address": "ЗКО УРАЛЬСК МКР. КОКТЕМ УЛ.М.МУНКЕУЛЫ Д.107/1, КВ.103"
 },
 {
  "type": "Point",
  "coordinates": [
   51.2509082,
   51.3469744
  ],
  "address": "ЗКО УРАЛЬСК П.ДЕРКУЛ МКР КӨКЖИЕК, УЛ КЕЙКІ БАТЫР 27"
 },
 {
  "type": "Point",
  "coordinates": [
   51.1985684,
   51.3662899
  ],
  "address": "ЗКО УРАЛЬСК УЛ 8 МАРТА 37"
 },
 {
  "type": "Point",
  "coordinates": [
   51.19969010000001,
   51.3806726
  ],
  "address": "ЗКО УРАЛЬСК КУРМАНГАЗЫ 42"
 },
 {
  "type": "Point",
  "coordinates": [
   51.1880556,
   51.3258333
  ],
  "address": "ЗКО УРАЛЬСК П.ЗАЧАГАНСК УЛ ЮЖНАЯ Д 8, КВ 2"
 },
 {
  "type": "Point",
  "coordinates": [
   51.16791019999999,
   51.2954585
  ],
  "address": "ЗКО УРАЛЬСК МИКРОРАЙОН КЕҢ ДАЛА, УЛИЦА Е.БРУСИЛОВСКОГО 121"
 },
 {
  "type": "Point",
  "coordinates": [
   51.1801801,
   51.31365359999999
  ],
  "address": "ЗКО УРАЛЬСК ЗАЧАГАНСКИЙ УЛИЦА ЖАНГИР ХАНА 43/2"
 },
 {
  "type": "Point",
  "coordinates": [
   51.2107141,
   51.3785859
  ],
  "address": "ЗКО УРАЛЬСК АБУБАКИР КЕРДЕРИ 125 КВ 19 КВ"
 },
 {
  "type": "Point",
  "coordinates": [
   51.227821,
   51.3865431
  ],
  "address": "ЗКО УРАЛЬСК ЖАМБЫЛ Д.213, КВ.29"
 },
 {
  "type": "Point",
  "coordinates": [
   51.227821,
   51.3865431
  ],
  "address": "ЗКО УРАЛЬСК С/Т ВИКТОРИЯ 1,19"
 },
 {
  "type": "Point",
  "coordinates": [
   51.2356342,
   51.4490972
  ],
  "address": "ЗКО УРАЛЬСК УЛ.ГАГАРИНА Д.113/2, КВ.34"
 },
 {
  "type": "Point",
  "coordinates": [
   51.2441021,
   51.4317375
  ],
  "address": "ЗКО УРАЛЬСК 4 МКРН Д.19, КВ.69"
 },
 {
  "type": "Point",
  "coordinates": [
   51.227821,
   51.3865431
  ],
  "address": "ЗКО УРАЛЬСК МКР КАДЫР МЫРЗА АЛИ Д 30/1 КВ 3"
 },
 {
  "type": "Point",
  "coordinates": [
   51.2580667,
   51.4904221
  ],
  "address": "ЗКО УРАЛЬСК ЖЕЛАЕВСКИЙ, ЖЕЛАЕВО УЛИЦА БІРЛІК 79А"
 },
 {
  "type": "Point",
  "coordinates": [
   51.227821,
   51.3865431
  ],
  "address": "ЗКО УРАЛЬСК МКР/Н АРМАН УЛ.М.ТЫНЫШБАЕВА Д.19/1"
 },
 {
  "type": "Point",
  "coordinates": [
   51.1880556,
   51.3258333
  ],
  "address": "ЗКО УРАЛЬСК ЗАЧАГАНСК КУЛТЕГИН 63"
 },
 {
  "type": "Point",
  "coordinates": [
   51.0815396,
   51.28531719999999
  ],
  "address": "ЗКО УРАЛЬСК КРУГЛООЗЕРНОЕ СОВЕТСКАЯ 20"
 },
 {
  "type": "Point",
  "coordinates": [
   51.227821,
   51.3865431
  ],
  "address": "ЗКО УРАЛЬСК 2ЗКО,  УРАЛЬСКОЙ КИЛОМЕТР Д.27"
 },
 {
  "type": "Point",
  "coordinates": [
   51.2317437,
   51.3605422
  ],
  "address": "ЗКО УРАЛЬСК УЛИЦА Х.ЕСЕНЖАНОВА 14"
 },
 {
  "type": "Point",
  "coordinates": [
   51.2044036,
   51.3862621
  ],
  "address": "ЗКО УРАЛЬСК САДОВОДЧЕСКОЕ ТОВАРИЩЕСТВО АРМАН Д 54"
 },
 {
  "type": "Point",
  "coordinates": [
   51.2509082,
   51.3469744
  ],
  "address": "ЗКО УРАЛЬСК ДЕРКУЛ Д.6, КВ.1ЭТАП Д.24/1"
 },
 {
  "type": "Point",
  "coordinates": [
   51.227821,
   51.3865431
  ],
  "address": "ЗКО УРАЛЬСК САД.ТОВ.ЗАЧАГАНСКИЙ Д.298"
 },
 {
  "type": "Point",
  "coordinates": [
   51.2053625,
   51.3789982
  ],
  "address": "ЗКО УРАЛЬСК САДОВОДЧЕСКОЕ ТОВАРИЩЕСТВО ВЕНЕРА 134/1"
 },
 {
  "type": "Point",
  "coordinates": [
   51.2322585,
   51.4146937
  ],
  "address": "ЗКО УРАЛЬСК АКТЮБИНСКАЯ 82"
 },
 {
  "type": "Point",
  "coordinates": [
   51.227821,
   51.3865431
  ],
  "address": "ЗКО УРАЛЬСК МАЛИНА 21"
 },
 {
  "type": "Point",
  "coordinates": [
   51.0815396,
   51.28531719999999
  ],
  "address": "ЗКО УРАЛЬСК КРУГЛООЗЕРНОЕ БАКЫТ 6"
 },
 {
  "type": "Point",
  "coordinates": [
   51.2541247,
   51.2958595
  ],
  "address": "ЗКО УРАЛЬСК ДЕРКУЛ УЛ ТРУДОВАЯ Д.8, КВ.7"
 },
 {
  "type": "Point",
  "coordinates": [
   51.227821,
   51.3865431
  ],
  "address": "ЗКО УРАЛЬСК МКР.САРЫТАУ БИРЖАН САЛА 19/1"
 },
 {
  "type": "Point",
  "coordinates": [
   51.1880556,
   51.3258333
  ],
  "address": "ЗКО УРАЛЬСК ЗАЧАГАНСК, МКР.САРЫТАУ КЕНЕСАРЫ КАСЫМУЛЫ, Д. 43"
 },
 {
  "type": "Point",
  "coordinates": [
   51.227821,
   51.3865431
  ],
  "address": "ЗКО УРАЛЬСК ПАНФИЛОВА Д.59, КВ.1"
 },
 {
  "type": "Point",
  "coordinates": [
   51.1833062,
   51.2740586
  ],
  "address": "ЗКО УРАЛЬСК МКР.КЕН ДАЛА УЛ.43ЗКО,  УРАЛЬСКЯ 9"
 },
 {
  "type": "Point",
  "coordinates": [
   51.2422618,
   51.4524363
  ],
  "address": "ЗКО УРАЛЬСК А УЛ.ИМАНОВА Д.73"
 },
 {
  "type": "Point",
  "coordinates": [
   51.1779737,
   51.2812804
  ],
  "address": "ЗКО УРАЛЬСК БРУСИЛОВСКОГО Д. 20, КОРПУС 1"
 },
 {
  "type": "Point",
  "coordinates": [
   51.2202148,
   51.36191849999999
  ],
  "address": "ЗКО УРАЛЬСК ЕСКАЛИЕВА Д 186, КВ 87"
 },
 {
  "type": "Point",
  "coordinates": [
   51.227821,
   51.3865431
  ],
  "address": "ЗКО УРАЛЬСК ЗАЧАГАНСКИЙ УЛ.ГҮЛЗАР Д.28/1"
 },
 {
  "type": "Point",
  "coordinates": [
   51.2790709,
   51.46424409999999
  ],
  "address": "ЗКО УРАЛЬСК МКР ЖУЛДЫЗ УЛ АЛАТАУ 14"
 },
 {
  "type": "Point",
  "coordinates": [
   51.19435259999999,
   51.37099610000001
  ],
  "address": "ЗКО УРАЛЬСК П.СЕРЕБРЯКОВА УЛ.ПРОЛЕТАРСКАЯ 27"
 },
 {
  "type": "Point",
  "coordinates": [
   51.2085861,
   51.2914173
  ],
  "address": "ЗКО УРАЛЬСК МКР. БАЛАУСА УЛ. САНЖАР АСФЕНДИЯРОВА Д.12"
 },
 {
  "type": "Point",
  "coordinates": [
   51.227821,
   51.3865431
  ],
  "address": "ЗКО УРАЛЬСК УЛИЦА СОЛТУСТИКЗКО,  УРАЛЬСКСЕВЕРНЫЙ 2 ,-9"
 },
 {
  "type": "Point",
  "coordinates": [
   51.1880556,
   51.3258333
  ],
  "address": "ЗКО УРАЛЬСК САДОВОДЧЕСКОЕ ТОВАРИЩЕСТВО ЗАЧАГАНСКИЙ, Д. 751/1"
 },
 {
  "type": "Point",
  "coordinates": [
   51.2688053,
   51.458687
  ],
  "address": "ЗКО УРАЛЬСК УЛИЦА ЕВРАЗИЙСКАЯ ДОМ 64/1"
 },
 {
  "type": "Point",
  "coordinates": [
   51.2509082,
   51.3469744
  ],
  "address": "ЗКО УРАЛЬСК ДЕРКУЛ Д.20, КВ.2 ЭТАП Д.32"
 },
 {
  "type": "Point",
  "coordinates": [
   51.227821,
   51.3865431
  ],
  "address": "ЗКО УРАЛЬСК  ,УЛИЦА ИМЕНИ Н.СДЫКОВА Д.64, КВ.26"
 },
 {
  "type": "Point",
  "coordinates": [
   51.227821,
   51.3865431
  ],
  "address": "ЗКО УРАЛЬСК ТУПИК 2ЗКО,  УРАЛЬСКЗАВОКЗАЛЬНЫЙ Д.2, КВ.17"
 },
 {
  "type": "Point",
  "coordinates": [
   51.227821,
   51.3865431
  ],
  "address": "ЗКО УРАЛЬСК САДОВОДЧЕСКОЕ ТОВАРИЩЕСТВО ЛОКОМОТИВ 396"
 },
 {
  "type": "Point",
  "coordinates": [
   51.227821,
   51.3865431
  ],
  "address": "ЗКО УРАЛЬСК УЛ ИМЕНИ К.Я.МАЛИНА 56"
 },
 {
  "type": "Point",
  "coordinates": [
   51.221914,
   51.36585909999999
  ],
  "address": "ЗКО УРАЛЬСК ЖУКОВА 6"
 },
 {
  "type": "Point",
  "coordinates": [
   51.2555552,
   51.44534489999999
  ],
  "address": "ЗКО УРАЛЬСК УЛ. ЖАНА ОРДА Д. 3 КВ. 34"
 },
 {
  "type": "Point",
  "coordinates": [
   51.2156271,
   51.3736688
  ],
  "address": "ЗКО УРАЛЬСК КУРМАНГАЗЫ Д.165, КВ.46"
 },
 {
  "type": "Point",
  "coordinates": [
   51.2491698,
   51.4190508
  ],
  "address": "ЗКО УРАЛСЬК МИКРОРАЙОН СТРОИТЕЛЬ 42 КВ.44"
 },
 {
  "type": "Point",
  "coordinates": [
   51.22995359999999,
   51.4665754
  ],
  "address": "ЗКО УРАЛЬСК УЛИЦА МЯСОКОМБИНАТ 8, КВ.419"
 },
 {
  "type": "Point",
  "coordinates": [
   51.227821,
   51.3865431
  ],
  "address": "ЗКО УРАЛЬСК МИКРОРАЙОН КӨКЖИЕК, УЛИЦА ИГІЛІК 2/1"
 },
 {
  "type": "Point",
  "coordinates": [
   51.1880556,
   51.3258333
  ],
  "address": "ЗКО УРАЛЬСК САДОВОДЧЕСКОЕ ТОВАРИЩЕСТВО ЗАЧАГАНСКИЙ 869"
 },
 {
  "type": "Point",
  "coordinates": [
   51.2491698,
   51.4190508
  ],
  "address": "ЗКО УРАЛЬСК МКР.СТРОИТЕЛЬ Д.39 КВ.82"
 },
 {
  "type": "Point",
  "coordinates": [
   51.1734235,
   51.275699
  ],
  "address": "ЗКО УРАЛЬСКЗАЧАГАНСКИЙ,МКР АРМАН,М.МУНКЕУЛЫ Д.113/1, КВ.158"
 },
 {
  "type": "Point",
  "coordinates": [
   51.227821,
   51.3865431
  ],
  "address": "ЗКО УРАЛЬСК МКР.СЕВЕРОЗКО,  УРАЛЬСКВОСТОК 2,Д.15/2, КВ.112"
 },
 {
  "type": "Point",
  "coordinates": [
   51.1738134,
   51.2911102
  ],
  "address": "ЗКО УРАЛЬСК МКР АРМАН УЛ ДАУЛЕТШЕ КУСЕПКАЛИЕВ 3"
 },
 {
  "type": "Point",
  "coordinates": [
   51.25115830000001,
   51.29615320000001
  ],
  "address": "ЗКО УРАЛЬСК ДЕРКУЛ КОЛЬЦЕВАЯ 22"
 },
 {
  "type": "Point",
  "coordinates": [
   51.227821,
   51.3865431
  ],
  "address": "ЗКО УРАЛЬСК ЗАЧАГАНСКИЙ ӨЗЕН Д.10"
 },
 {
  "type": "Point",
  "coordinates": [
   51.227821,
   51.3865431
  ],
  "address": "ЗКО УРАЛЬСК УЛ ТӘУЕЛСІЗДІК 24/1"
 },
 {
  "type": "Point",
  "coordinates": [
   51.1880556,
   51.3258333
  ],
  "address": "ЗКО УРАЛЬСК ЗАЧАГАНСК УЛ.СТРОЙТЕЛЕЙ Д50/1"
 },
 {
  "type": "Point",
  "coordinates": [
   51.2410676,
   51.3783804
  ],
  "address": "ЗКО УРАЛЬСК ПРИДОРОЖНАЯ Д.1/1, КВ.58"
 },
 {
  "type": "Point",
  "coordinates": [
   51.1807704,
   51.2906904
  ],
  "address": "ЗКО УРАЛЬСК МКР.КОКТЕМ УЛ.КАМБАР БАТЫР Д.8/1, КВ.83"
 },
 {
  "type": "Point",
  "coordinates": [
   51.227821,
   51.3865431
  ],
  "address": "ЗКО УРАЛЬСК Д.К.ЗАЧАГАНСКИЙ Д.184"
 },
 {
  "type": "Point",
  "coordinates": [
   51.227821,
   51.3865431
  ],
  "address": "ЗКО УРАЛЬСК КОКШЕТАУ , Д.1А"
 },
 {
  "type": "Point",
  "coordinates": [
   51.2001612,
   51.3721776
  ],
  "address": "ЗКО УРАЛЬСК УЛ.А.КАРЕВ Д.15 КВ.4"
 },
 {
  "type": "Point",
  "coordinates": [
   51.2078849,
   51.3832459
  ],
  "address": "ЗКО УРАЛЬСК УЛ.МУХИТА Д.40"
 },
 {
  "type": "Point",
  "coordinates": [
   51.227821,
   51.3865431
  ],
  "address": "ЗКО УРАЛЬСК МКР ИМ Д А КУНАЕВА Д.4, КВ.105"
 },
 {
  "type": "Point",
  "coordinates": [
   51.227821,
   51.3865431
  ],
  "address": "ЗКО УРАЛЬСК МИКРОРАЙОН КАДЫР МЫРЗА АЛИ Д.17, КВ.58"
 },
 {
  "type": "Point",
  "coordinates": [
   51.1830913,
   51.3770636
  ],
  "address": "ЗКО УРАЛЬСК ПЕРЕУЛОК С РАЗИНА 9"
 },
 {
  "type": "Point",
  "coordinates": [
   51.2509082,
   51.3469744
  ],
  "address": "ЗКО УРАЛЬСК ДЕРКУЛ МКР.КӨКЖИЕК, УЛ.АЛЕКСАНДР ЗАТАЕВИЧ 18,"
 },
 {
  "type": "Point",
  "coordinates": [
   51.227821,
   51.3865431
  ],
  "address": "ЗКО УРАЛЬСК МКР. Д.А. КУНАЕВА 19 КВ. 13"
 },
 {
  "type": "Point",
  "coordinates": [
   51.227821,
   51.3865431
  ],
  "address": "ЗКО УРАЛЬСК МКРН ЖАНАЗКО,  УРАЛЬСКОРДА Д.7, КВ.2"
 },
 {
  "type": "Point",
  "coordinates": [
   51.175695,
   51.295855
  ],
  "address": "ЗКО УРАЛЬСК МКР.АРМАН УЛ.М.МУНКЕУЛЫ Д.108/2, КВ.29"
 },
 {
  "type": "Point",
  "coordinates": [
   51.1869124,
   51.3188178
  ],
  "address": "ЗКО УРАЛЬСК ЖАНГИР ХАНА Д.13, КВ.20"
 },
 {
  "type": "Point",
  "coordinates": [
   51.227821,
   51.3865431
  ],
  "address": "ЗКО УРАЛЬСК САДОВОДЧЕСКОЕ ТОВАРИЩЕСТВО КУМЫЗ 19А"
 },
 {
  "type": "Point",
  "coordinates": [
   51.0815396,
   51.28531719999999
  ],
  "address": "ЗКО УРАЛЬСК КРУГЛООЗЕРНОЕ КАБАНБАЙ БАТЫР 37"
 },
 {
  "type": "Point",
  "coordinates": [
   51.227821,
   51.3865431
  ],
  "address": "ЗКО УРАЛЬСК МАШТАКОВА 29/1"
 },
 {
  "type": "Point",
  "coordinates": [
   51.227821,
   51.3865431
  ],
  "address": "ЗКО УРАЛЬСК МКР. ИМ КАДЫР МЫРЗА АЛИ Д1 КВ.142"
 },
 {
  "type": "Point",
  "coordinates": [
   51.1880556,
   51.3258333
  ],
  "address": "ЗКО УРАЛЬСК САДОВОДЧЕСКОЕ ТОВАРИЩЕСТВО ЗАЧАГАНСКИЙ 660"
 },
 {
  "type": "Point",
  "coordinates": [
   49.56797270000001,
   50.8066616
  ],
  "address": "ЗКО УРАЛЬСКМКР БАЙТЕРЕК НУР 7 КОРПУС Д.1, КВ.28"
 },
 {
  "type": "Point",
  "coordinates": [
   51.227821,
   51.3865431
  ],
  "address": "ЗКО УРАЛЬСК МИКРОРАЙОН КАДЫР МЫРЗА АЛИ Д.7, КВ.16"
 },
 {
  "type": "Point",
  "coordinates": [
   51.2465904,
   51.423839
  ],
  "address": "ЗКО УРАЛЬСК САД ТОВАРИЩЕСТВО АРМАН 122"
 },
 {
  "type": "Point",
  "coordinates": [
   51.1880556,
   51.3258333
  ],
  "address": "ЗКО УРАЛЬСК П ЗАЧАГАНСК УЛ КУНШУАК 6/2"
 },
 {
  "type": "Point",
  "coordinates": [
   51.227821,
   51.3865431
  ],
  "address": "ЗКО УРАЛЬСК МКР.Д.А.КУНАЕВА Д.20/1, КВ.27"
 },
 {
  "type": "Point",
  "coordinates": [
   51.1833062,
   51.2740586
  ],
  "address": "ЗКО УРАЛЬСК ЗАЧАГАНСКИЙ МКР.КЕН ДАЛА УЛ.10 Д.11"
 },
 {
  "type": "Point",
  "coordinates": [
   51.227821,
   51.3865431
  ],
  "address": "ЗКО УРАЛЬСК МКР САРЫТАУ УЛ ТАТТИМБЕТА Д 21"
 },
 {
  "type": "Point",
  "coordinates": [
   51.1880556,
   51.3258333
  ],
  "address": "ЗКО УРАЛЬСК ЗАЧАГАНСК РАКЫМЖАНА КОШКАРБАЕВА 8/1"
 },
 {
  "type": "Point",
  "coordinates": [
   51.1953061,
   51.3750505
  ],
  "address": "ЗКО УРАЛЬСК Г ТУКАЯ Д.55, КВ.5"
 },
 {
  "type": "Point",
  "coordinates": [
   51.2715858,
   51.3870708
  ],
  "address": "ЗКО УРАЛЬСК АВТОМОБИЛЬНАЯ Д.17/3 КВ.4"
 },
 {
  "type": "Point",
  "coordinates": [
   51.227821,
   51.3865431
  ],
  "address": "ЗКО УРАЛЬСК МКР Д.А.КУНАЕВА Д 21, КВ 74"
 },
 {
  "type": "Point",
  "coordinates": [
   51.2034676,
   51.3630357
  ],
  "address": "ЗКО УРАЛЬСК САДОВОДЧЕСКОЕ ТОВАРИЩЕСТВО ЗЕНИТ 284"
 },
 {
  "type": "Point",
  "coordinates": [
   51.227821,
   51.3865431
  ],
  "address": "ЗКО УРАЛЬСК УЛИЦА АҚСУ 16"
 },
 {
  "type": "Point",
  "coordinates": [
   51.1880556,
   51.3258333
  ],
  "address": "ЗКО УРАЛЬСК ЗАЧАГАНСК М.БЕКИМОВА 43"
 },
 {
  "type": "Point",
  "coordinates": [
   51.1880556,
   51.3258333
  ],
  "address": "ЗКО УРАЛЬСК ЗАЧАГАНСК , УЛ. МКР.БОЛАШАК УЛ.БӨКЕН БИ Д. 57"
 },
 {
  "type": "Point",
  "coordinates": [
   51.227821,
   51.3865431
  ],
  "address": "ЗКО УРАЛЬСК МКР САРЫ АРКА БЕЙМБЕТ МАЙЛИНА 69"
 },
 {
  "type": "Point",
  "coordinates": [
   51.1880556,
   51.3258333
  ],
  "address": "ЗКО УРАЛЬСК САДОВОДЧЕСКОЕ ТОВАРИЩЕСТВО ЗАЧАГАНСКИЙ 1411"
 },
 {
  "type": "Point",
  "coordinates": [
   51.2173373,
   51.3664612
  ],
  "address": "ЗКО УРАЛЬСК УЛ.ИМ К.АМАНЖОЛОВА Д125/1 КВ9"
 },
 {
  "type": "Point",
  "coordinates": [
   51.18236109999999,
   51.287378
  ],
  "address": "ЗКО УРАЛЬСК ЗАЧАГАНСКИЙ, МКР. КӨКТЕМ, УЛ.АНАРЫН, Д. 59/1"
 },
 {
  "type": "Point",
  "coordinates": [
   51.2641048,
   51.4364967
  ],
  "address": "ЗКО УРАЛЬСК САМАЛ 22/4"
 },
 {
  "type": "Point",
  "coordinates": [
   51.227821,
   51.3865431
  ],
  "address": "ЗКО УРАЛЬСК УЛ.К.Я.МАЛИНА, Д.38"
 },
 {
  "type": "Point",
  "coordinates": [
   51.1770489,
   51.2907716
  ],
  "address": "ЗКО УРАЛЬСК ЗАЧАГАНСК МКР. КЕН ДАЛА УЛ. М.МУНКЕУЛЫ 41/1"
 },
 {
  "type": "Point",
  "coordinates": [
   49.56797270000001,
   50.8066616
  ],
  "address": "ЗКО УРАЛЬСКСАДОВОДЧЕСКОЕ ТОВАРИЩЕСТВО ВЕНЕРА 92"
 },
 {
  "type": "Point",
  "coordinates": [
   51.2156271,
   51.3736688
  ],
  "address": "ЗКО УРАЛЬСК УЛ.КУРМАНГАЗЫ Д.165, КВ.123Б"
 },
 {
  "type": "Point",
  "coordinates": [
   51.2480479,
   51.4145021
  ],
  "address": "ЗКО УРАЛЬСК УЛ ЦИОЛКОВСКОГО Д 18 КВ 32"
 },
 {
  "type": "Point",
  "coordinates": [
   51.1770489,
   51.2907716
  ],
  "address": "ЗКО УРАЛЬСК МУРАТА МУНКЕУЛЫ 41/1"
 },
 {
  "type": "Point",
  "coordinates": [
   51.2161613,
   51.3759629
  ],
  "address": "ЗКО УРАЛЬСК  ПР ЕВРАЗИЯ Д 86 КВ 14"
 },
 {
  "type": "Point",
  "coordinates": [
   51.2526869,
   51.2916913
  ],
  "address": "ЗКО УРАЛЬСК ДЕРКУЛ УЛИЦА ИБРАЯ АЛТЫНСАРИНА Д.10, КВ.4"
 },
 {
  "type": "Point",
  "coordinates": [
   51.21475969999999,
   51.3712661
  ],
  "address": "ЗКО УРАЛЬСК САДОВОДЧЕСКОЕ ТОВАРИЩЕСТВО ЕЛОЧКА 84"
 },
 {
  "type": "Point",
  "coordinates": [
   51.227821,
   51.3865431
  ],
  "address": "ЗКО УРАЛЬСК УЛ ПАМЯТИ ВОИНОВЗКО,  УРАЛЬСКИНТЕРНАЦИОНАЛИСТОВ Д 110"
 },
 {
  "type": "Point",
  "coordinates": [
   51.18236109999999,
   51.287378
  ],
  "address": "ЗКО  УРАЛЬСК МКР. КӨКТЕМ, УЛ. МАШХУР ЖУСУП КОПЕЕВ, 21/1"
 },
 {
  "type": "Point",
  "coordinates": [
   51.22208759999999,
   51.37703920000001
  ],
  "address": "ЗКО УРАЛЬСК УЛ М МАМЕТОВА 112"
 },
 {
  "type": "Point",
  "coordinates": [
   51.1807704,
   51.2906904
  ],
  "address": "ЗКО УРАЛЬСК МКР. КОКТЕМ УЛ.КАМБАР БАТЫР Д.8/1 КВ.79"
 },
 {
  "type": "Point",
  "coordinates": [
   51.2262058,
   51.4162293
  ],
  "address": "ЗКО УРАЛЬСК ГАГАРИНА Д.11, КВ.1А"
 },
 {
  "type": "Point",
  "coordinates": [
   51.227821,
   51.3865431
  ],
  "address": "ЗКО УРАЛЬСК Д.К. ВАГОННИК Д 152"
 },
 {
  "type": "Point",
  "coordinates": [
   51.0815396,
   51.28531719999999
  ],
  "address": "ЗКО КРУГЛООЗЕРНОЕ КОММУНИСТИЧЕСКАЯ Д.1, КВ.13"
 },
 {
  "type": "Point",
  "coordinates": [
   51.2472851,
   51.4150143
  ],
  "address": "ЗКО УРАЛЬСК ЦИОЛКОВСКОГО Д.12, КВ.56"
 },
 {
  "type": "Point",
  "coordinates": [
   51.4226688,
   51.96101669999999
  ],
  "address": "ЗКО ЗЕЛЕНОВСКИЙ РЗКО,  УРАЛЬСКН РУБЕЖИНСКОЕ УЛИЦА МИРНАЯ 18"
 },
 {
  "type": "Point",
  "coordinates": [
   51.2525892,
   51.2926431
  ],
  "address": "ЗКО УРАЛЬСК УЛИЦА ИБРАЯ АЛТЫНСАРИНА 8, КВ 1"
 },
 {
  "type": "Point",
  "coordinates": [
   51.227821,
   51.3865431
  ],
  "address": "ЗКО УРАЛЬСК С/Т ВИКТОРИЯ -1 129"
 },
 {
  "type": "Point",
  "coordinates": [
   51.2367583,
   51.390346
  ],
  "address": "ЗКО УРАЛЬСК Г.КУРМАНГАЛИЕВА, Д.42"
 },
 {
  "type": "Point",
  "coordinates": [
   51.1880556,
   51.3258333
  ],
  "address": "ЗКО УРАЛЬСК ЗАЧАГАНСКИЙ МКР АРМАН, УЛ. МУРАТА МУНКЕУЛЫ Д.108/5, КВ.85"
 },
 {
  "type": "Point",
  "coordinates": [
   51.2315555,
   51.42614349999999
  ],
  "address": "ЗКО УРАЛЬСК Ш.АЙТАЛИЕВА Д.15, КВ.10"
 },
 {
  "type": "Point",
  "coordinates": [
   51.2550641,
   51.4257061
  ],
  "address": "ЗКО УРАЛЬСКУЛИЦА ПРАВДУХИНА,Д.2"
 },
 {
  "type": "Point",
  "coordinates": [
   51.2479874,
   51.42970889999999
  ],
  "address": "ЗКО УРАЛЬСК  ПР. АБУЛХАИР ХАНА, Д.171, КВ.77"
 },
 {
  "type": "Point",
  "coordinates": [
   51.1771821,
   51.2811351
  ],
  "address": "ЗКО  УРАЛЬСК ЗАЧАГАНСКИЙ МКР.КОКТЕМ УЛ БРУСИЛОВСКОГО 86/1"
 },
 {
  "type": "Point",
  "coordinates": [
   51.1807704,
   51.2906904
  ],
  "address": "ЗКО УРАЛЬСК ЗАЧАГАНСК, МКР. КӨКТЕМ, УЛИЦА КАМБАР БАТЫР, Д. 8/1, КВ. 32"
 },
 {
  "type": "Point",
  "coordinates": [
   51.227821,
   51.3865431
  ],
  "address": "ЗКО УРАЛЬСК МКР АҚБАҚАЙ 13"
 },
 {
  "type": "Point",
  "coordinates": [
   51.2181608,
   51.3813691
  ],
  "address": "ЗКО УРАЛЬСК А.СКОРОБОГАТОВА, Д.21"
 },
 {
  "type": "Point",
  "coordinates": [
   51.227821,
   51.3865431
  ],
  "address": "ЗКО УРАЛЬСК ДЧ/К ВИКТОРИЯ-1 -111"
 },
 {
  "type": "Point",
  "coordinates": [
   51.2491698,
   51.4190508
  ],
  "address": "ЗКО УРАЛЬСК МИКРОРАЙОН СТРОИТЕЛЬ Д.37, КВ.78"
 },
 {
  "type": "Point",
  "coordinates": [
   51.2054391,
   51.3869221
  ],
  "address": "ЗКО УРАЛЬСК УЛ.ЛЕРМОНТОВА Д.54"
 },
 {
  "type": "Point",
  "coordinates": [
   51.227821,
   51.3865431
  ],
  "address": "ЗКО УРАЛЬСК СЕВЕРОЗКО,  УРАЛЬСКВОСТОК-2, Д.15, КВ.409"
 },
 {
  "type": "Point",
  "coordinates": [
   51.2441021,
   51.4317375
  ],
  "address": "ЗКО УРАЛЬСК УЛ. МИКРОРАЙОН 4, Д. 27/2, КВ. 49"
 },
 {
  "type": "Point",
  "coordinates": [
   51.2180412,
   51.370361
  ],
  "address": "ЗКО УРАЛЬСК ЧУРИНА Д.119, КВ.49"
 },
 {
  "type": "Point",
  "coordinates": [
   51.2580667,
   51.4904221
  ],
  "address": "ЗКО УРАЛЬСК ЖЕЛАЕВСКИЙ, ЖЕЛАЕВО, УЛ. УЛИЦА САМҰРЫҚ, Д. 42"
 },
 {
  "type": "Point",
  "coordinates": [
   51.176769,
   51.3041339
  ],
  "address": "ЗКО УРАЛЬСК УЛ.ЖАНГИР ХАНА Д.53 КВ.49"
 },
 {
  "type": "Point",
  "coordinates": [
   51.227821,
   51.3865431
  ],
  "address": "ЗКО УРАЛЬСК МИКРОРАЙОН ИМЕНИ Д.А.КУНАЕВА Д.17, КВ.33"
 },
 {
  "type": "Point",
  "coordinates": [
   51.202227,
   51.3676833
  ],
  "address": "ЗКО УРАЛЬСК УЛИЦА КОМСОМОЛЬСКАЯ 142"
 },
 {
  "type": "Point",
  "coordinates": [
   51.175695,
   51.295855
  ],
  "address": "ЗКО УРАЛЬСК МИКРОРАЙОН АРМАН, УЛИЦА МУРАТА МУНКЕУЛЫ Д.108/5, КВ.36"
 },
 {
  "type": "Point",
  "coordinates": [
   51.2509082,
   51.3469744
  ],
  "address": "ЗКО УРАЛЬСК ПОС.ДЕРКУЛ УЛ.Д.13, КВ.1ЭТАП Д12"
 },
 {
  "type": "Point",
  "coordinates": [
   51.2246363,
   51.37123260000001
  ],
  "address": "ЗКО УРАЛЬСК КУРМАНГАЗЫ Д.198, КВ.64Г"
 },
 {
  "type": "Point",
  "coordinates": [
   51.227821,
   51.3865431
  ],
  "address": "ЗКО УРАЛЬСК СОЛТУСТИКЗКО,  УРАЛЬСКСЕВЕРНЫЙ Д.1, КВ.16"
 },
 {
  "type": "Point",
  "coordinates": [
   51.1968492,
   51.3657026
  ],
  "address": "ЗКО УРАЛЬСК ЖЕКСЕНБАЕВА 2"
 },
 {
  "type": "Point",
  "coordinates": [
   51.2429053,
   51.4496146
  ],
  "address": "ЗКО УРАЛЬСК РУЖЕЙНИКОВА Д.13, КВ.74"
 },
 {
  "type": "Point",
  "coordinates": [
   51.2119261,
   51.3789679
  ],
  "address": "ЗКО УРАЛЬСК УЛ. АБУБАКИР КЕРДЕРИ Д.120, КВ.79"
 },
 {
  "type": "Point",
  "coordinates": [
   51.2313653,
   51.384035
  ],
  "address": "ЗКО УРАЛЬСК УЛ.КАРБЫШЕВА Д.64 КВ.55"
 },
 {
  "type": "Point",
  "coordinates": [
   51.2511466,
   51.42610490000001
  ],
  "address": "ЗКО УРАЛЬСК 5 МКР Д.5, КВ.10"
 },
 {
  "type": "Point",
  "coordinates": [
   51.2371323,
   51.4070461
  ],
  "address": "ЗКО УРАЛЬСК ТЮЛЕНИНА Д 1/6 КВ 60"
 },
 {
  "type": "Point",
  "coordinates": [
   51.227821,
   51.3865431
  ],
  "address": "ЗКО УРАЛЬСК УЛ СУНДЕТКАЛИ ЕСҚАЛИЕВА 209"
 },
 {
  "type": "Point",
  "coordinates": [
   51.19828889999999,
   51.375874
  ],
  "address": "ЗКО УРАЛЬСК Г КАРАША 123"
 },
 {
  "type": "Point",
  "coordinates": [
   51.2509082,
   51.3469744
  ],
  "address": "ЗКО УРАЛЬСК П ДЕРКУЛ УЛ И АЛТЫНСАРИН Д 16 КВ 54"
 },
 {
  "type": "Point",
  "coordinates": [
   51.227821,
   51.3865431
  ],
  "address": "ЗКО УРАЛЬСК АБАЯ 18"
 },
 {
  "type": "Point",
  "coordinates": [
   51.2372172,
   51.4073474
  ],
  "address": "ЗКО УРАЛЬСК УЛИЦА С.ТЮЛЕНИНА Д 9,КВ 1"
 },
 {
  "type": "Point",
  "coordinates": [
   51.227821,
   51.3865431
  ],
  "address": "ЗКО УРАЛЬСК УЛ. АЛЕКСЕЙ ЧЕРЕКАЕВ Д.2/6, КВ.9"
 },
 {
  "type": "Point",
  "coordinates": [
   51.1699,
   51.30461829999999
  ],
  "address": "ЗКО УРАЛЬСК ЗАЧАГАНСК МКР. ЖАКСЫ АУЫЛ, УЛ. ДАУКАРА БАТЫРА 8"
 },
 {
  "type": "Point",
  "coordinates": [
   51.2389468,
   51.3782814
  ],
  "address": "ЗКО УРАЛЬСК УЛИЦА ПАВЛОДАРСКАЯ 5"
 },
 {
  "type": "Point",
  "coordinates": [
   51.19891519999999,
   51.368782
  ],
  "address": "ЗКО УРАЛЬСК КОМСОМОЛЬСКАЯ Д.105, КВ.5"
 },
 {
  "type": "Point",
  "coordinates": [
   51.1734235,
   51.275699
  ],
  "address": "ЗКО УРАЛЬСК МИКРОРАЙОН АРМАН, УЛИЦА МУРАТА МУНКЕУЛЫ Д 120 КВ 13"
 },
 {
  "type": "Point",
  "coordinates": [
   51.227821,
   51.3865431
  ],
  "address": "ЗКО УРАЛЬСК САДОВОДЧЕСКОЕ ТОВАРИЩЕСТВО СТЕНОВИК 245"
 },
 {
  "type": "Point",
  "coordinates": [
   51.1738134,
   51.2911102
  ],
  "address": "ЗКО УРАЛЬСК  МКР АРМАН УЛ М ЖУМАБАЕВА 8"
 },
 {
  "type": "Point",
  "coordinates": [
   51.26749479999999,
   51.45474
  ],
  "address": "ЗКО УРАЛЬСК МАЛИНА 23"
 },
 {
  "type": "Point",
  "coordinates": [
   51.227821,
   51.3865431
  ],
  "address": "ЗКО УРАЛЬСК УЛ. МКР.САРЫТАУ УЛ.8ЗКО,  УРАЛЬСКЯ Д. 8"
 },
 {
  "type": "Point",
  "coordinates": [
   51.1984989,
   51.376941
  ],
  "address": "ЗКО УРАЛЬСК УЛ.КОММУНИСТИЧЕСКАЯ Д.3 КВ.1"
 },
 {
  "type": "Point",
  "coordinates": [
   51.17765869999999,
   51.2933396
  ],
  "address": "ЗКО УРАЛЬСК МКР КОКТЕМ УЛ М. МУНКЕУЛЫ Д 81/1, КВ 34"
 },
 {
  "type": "Point",
  "coordinates": [
   51.2441021,
   51.4317375
  ],
  "address": "ЗКО УРАЛЬСК 4 МКР Д.25, КВ.117"
 },
 {
  "type": "Point",
  "coordinates": [
   51.1738134,
   51.2911102
  ],
  "address": "ЗКО УРАЛЬСК ЗАЧАГАНСКИЙ, МКР.АРМАН, Д.14, КВ.74"
 },
 {
  "type": "Point",
  "coordinates": [
   51.227821,
   51.3865431
  ],
  "address": "ЗКО УРАЛЬСК АВТОДОРОЖНИК УЛ.СТАНДАРТНАЯ 6/1"
 },
 {
  "type": "Point",
  "coordinates": [
   51.227821,
   51.3865431
  ],
  "address": "ЗКО УРАЛЬСК ЗКО,  УРАЛЬСК МКР САРЫТАУ УЛ. СУЛТАНА БЕЙБАРЫСА 45"
 },
 {
  "type": "Point",
  "coordinates": [
   51.0815396,
   51.28531719999999
  ],
  "address": "ЗКО УРАЛЬСК КРУГЛООЗЕРНОЕ УЛИЦА АСТАНА 76"
 },
 {
  "type": "Point",
  "coordinates": [
   51.227821,
   51.3865431
  ],
  "address": "ЗКО УРАЛЬСК ДОСТЫҚЗКО,  УРАЛЬСКДРУЖБА, Д.206, КВ.54"
 },
 {
  "type": "Point",
  "coordinates": [
   51.2061345,
   51.3784937
  ],
  "address": "ЗКО УРАЛЬСК МИКРОРАЙОН ЖҰЛДЫЗ, УЛИЦА 6 ,62"
 },
 {
  "type": "Point",
  "coordinates": [
   51.227821,
   51.3865431
  ],
  "address": "ЗКО УРАЛЬСК МИКРОРАЙОН САРЫТАУ, УЛИЦА СУЛТАНА БЕЙБАРЫСА 1/2"
 },
 {
  "type": "Point",
  "coordinates": [
   51.2061345,
   51.3784937
  ],
  "address": "ЗКО УРАЛЬСК МИКРОРАЙОН ЖҰЛДЫЗ, УЛИЦА ХАНТӘҢІРІ 7"
 },
 {
  "type": "Point",
  "coordinates": [
   51.1807704,
   51.2906904
  ],
  "address": "ЗКО УРАЛЬСК МКР.КОКТЕМ УЛ.КАМБАР БАТЫРА Д.4 КВ.31"
 },
 {
  "type": "Point",
  "coordinates": [
   51.2018335,
   51.3797453
  ],
  "address": "ЗКО УРАЛЬСК УЛИЦА КУРМАНГАЗЫ Д.57, КВ.3"
 },
 {
  "type": "Point",
  "coordinates": [
   51.2511466,
   51.42610490000001
  ],
  "address": "ЗКО УРАЛЬСК МКР 5 Д.30 КВ.57"
 },
 {
  "type": "Point",
  "coordinates": [
   51.2629451,
   51.4549438
  ],
  "address": "ЗКО УРАЛЬСК МИКРОРАЙОН БӘЙТЕРЕК, УЛИЦА ӨРКЕН 3"
 },
 {
  "type": "Point",
  "coordinates": [
   51.1807347,
   51.2911391
  ],
  "address": "ЗКО УРАЛЬСК ЗАЧАГАНСКИЙ МКР КӨКТЕМ УЛ КАМБАР БАТЫР Д.6, КВ.83"
 },
 {
  "type": "Point",
  "coordinates": [
   51.2301163,
   51.4401695
  ],
  "address": "ЗКО УРАЛЬСК ЖДАНОВА Д.46/1, КВ.72"
 },
 {
  "type": "Point",
  "coordinates": [
   51.227821,
   51.3865431
  ],
  "address": "ЗКО УРАЛЬСК Д.К. ЗАЧАГАНСКИЙ Д. 762"
 },
 {
  "type": "Point",
  "coordinates": [
   51.227821,
   51.3865431
  ],
  "address": "ЗКО УРАЛЬСК МИКРОРАЙОН ИМЕНИ Д.А.КУНАЕВА Д.19, КВ.25"
 },
 {
  "type": "Point",
  "coordinates": [
   51.2555552,
   51.44534489999999
  ],
  "address": "ЗКО УРАЛЬСК МРК ЖАНА ОРДА Д.21, КВ.19"
 },
 {
  "type": "Point",
  "coordinates": [
   51.1765489,
   51.3025721
  ],
  "address": "ЗКО УРАЛЬСК ЖАНГИР ХАНА Д. 55 КВ. 8"
 },
 {
  "type": "Point",
  "coordinates": [
   51.20047779999999,
   51.3652968
  ],
  "address": "ЗКО УРАЛЬСК 8 МАРТА 101 КВ 4"
 },
 {
  "type": "Point",
  "coordinates": [
   51.1893468,
   51.3179254
  ],
  "address": "ЗКО УРАЛЬСК УЛ.ТЕМИРТАУСКАЯ Д.19 К 1 КВ.58"
 },
 {
  "type": "Point",
  "coordinates": [
   51.2511466,
   51.42610490000001
  ],
  "address": "ЗКО УРАЛЬСК МКР. 5, Д.9, КВ.13"
 },
 {
  "type": "Point",
  "coordinates": [
   51.227821,
   51.3865431
  ],
  "address": "ЗКО УРАЛЬСК МИКРОРАЙОН ИМЕНИ Д.А.КУНАЕВА Д.67/1, КВ.91"
 },
 {
  "type": "Point",
  "coordinates": [
   51.1738134,
   51.2911102
  ],
  "address": "ЗКО УРАЛЬСК МКР.АРМАН УЛ.МУСТАФЫ ШОКАЙ 26"
 },
 {
  "type": "Point",
  "coordinates": [
   51.21475969999999,
   51.3712661
  ],
  "address": "ЗКО УРАЛЬСК Д.К.ЕЛОЧКА УЛ.ТОПОЛИНОВАЯ Д.52"
 },
 {
  "type": "Point",
  "coordinates": [
   51.2509082,
   51.3469744
  ],
  "address": "ЗКО УРАЛЬСК ДЕРКУЛ УЛИЦА Д.24, КВ.2ЭТАП Д.2"
 },
 {
  "type": "Point",
  "coordinates": [
   51.227821,
   51.3865431
  ],
  "address": "ЗКО УРАЛЬСК МИКРОРАЙОН ИМЕНИ Д.А.КУНАЕВА Д.27, КВ.124"
 },
 {
  "type": "Point",
  "coordinates": [
   51.19891519999999,
   51.368782
  ],
  "address": "ЗКО УРАЛЬСК КОМСОМОЛЬСКАЯ 106"
 },
 {
  "type": "Point",
  "coordinates": [
   51.2006483,
   51.3678463
  ],
  "address": "ЗКО УРАЛЬСК УЛИЦА КОМСОМОЛЬСКАЯ Д 119 КВ 9"
 },
 {
  "type": "Point",
  "coordinates": [
   51.227821,
   51.3865431
  ],
  "address": "ЗКО УРАЛЬСК МИКРОРАЙОН КӨКЖИЕК, УЛИЦА КЕЙКІ БАТЫР 24"
 },
 {
  "type": "Point",
  "coordinates": [
   51.1807704,
   51.2906904
  ],
  "address": "ЗКО УРАЛЬСК ЗАЧАГАНСКИЙ МИКРОРАЙОН КӨКТЕМ, УЛИЦА КАМБАР БАТЫР Д.4, КВ.6"
 },
 {
  "type": "Point",
  "coordinates": [
   51.1739755,
   51.3025045
  ],
  "address": "ЗКО УРАЛЬСК УЛ ЖАНГИР ХАНА Д 59/3 КВ 37"
 },
 {
  "type": "Point",
  "coordinates": [
   51.227821,
   51.3865431
  ],
  "address": "ЗКО УРАЛЬСК ДЧ/К ВИШНЕВЫЙ САД 104"
 },
 {
  "type": "Point",
  "coordinates": [
   51.2244988,
   51.3810562
  ],
  "address": "ЗКО УРАЛЬСК МОЛДАГУЛОВОЙ 20 КВ 4"
 },
 {
  "type": "Point",
  "coordinates": [
   51.1814292,
   51.2973041
  ],
  "address": "ЗКО ЗАЧАГАНСКИЙ МИКРОРАЙОН КОКТЕМ УЛ МУРАТА МУНКЕУЛЫ Д 85/4 КВ47"
 },
 {
  "type": "Point",
  "coordinates": [
   51.1807704,
   51.2906904
  ],
  "address": "ЗКО УРАЛЬСК МКР.КӨКТЕМ,УЛ.КАМБАР БАТЫР,Д.8/1, КВ.16"
 },
 {
  "type": "Point",
  "coordinates": [
   51.227821,
   51.3865431
  ],
  "address": "ЗКО УРАЛЬСК ДЧК.ЗАЧАГАНСКИЙ Д.650"
 },
 {
  "type": "Point",
  "coordinates": [
   51.1880556,
   51.3258333
  ],
  "address": "ЗКО  УРАЛЬСК ЗАЧАГАНСК, САНЖАР АСФЕНДИЯРОВА Д.21"
 },
 {
  "type": "Point",
  "coordinates": [
   51.2061345,
   51.3784937
  ],
  "address": "ЗКО УРАЛЬСК МИКРОРАЙОН ЖҰЛДЫЗ, УЛИЦА СЫҒАНАҚ 15/1"
 },
 {
  "type": "Point",
  "coordinates": [
   51.227821,
   51.3865431
  ],
  "address": "ЗКО УРАЛЬСК КАЖЫМУКАНА Д.58"
 },
 {
  "type": "Point",
  "coordinates": [
   51.2014656,
   51.3760365
  ],
  "address": "ЗКО УРАЛЬСК УЛ. САМАРСКАЯ 63 КВ.1"
 },
 {
  "type": "Point",
  "coordinates": [
   51.1833062,
   51.2740586
  ],
  "address": "ЗКО УРАЛЬСК МКР.КЕН ДАЛА Д. 7"
 },
 {
  "type": "Point",
  "coordinates": [
   51.227821,
   51.3865431
  ],
  "address": "ЗКО УРАЛЬСК  САМАРКАНД Д 2/2А КВ 5"
 },
 {
  "type": "Point",
  "coordinates": [
   51.1880556,
   51.3258333
  ],
  "address": "ЗКО УРАЛЬСК САДОВОДЧЕСКОЕ ТОВАРИЩЕСТВО ЗАЧАГАНСКИЙ 659/5"
 },
 {
  "type": "Point",
  "coordinates": [
   51.2555552,
   51.44534489999999
  ],
  "address": "ЗКО УРАЛЬСК МКР ЖАНА ОРДА Д 21 КВ 43"
 },
 {
  "type": "Point",
  "coordinates": [
   51.227821,
   51.3865431
  ],
  "address": "ЗКО УРАЛЬСК Д.К. ЗАЧАГАНСКИЙ Д 762 А"
 },
 {
  "type": "Point",
  "coordinates": [
   51.1880556,
   51.3258333
  ],
  "address": "ЗКО УРАЛЬСК ЗАЧАГАНСКИЙ МИКРОРАЙОН САРЫТАУ, УЛИЦА КАЗАНГАПА 28"
 },
 {
  "type": "Point",
  "coordinates": [
   51.227821,
   51.3865431
  ],
  "address": "ЗКО УРАЛЬСК САДОВОДЧЕСКОЕ ТОВАРИЩЕСТВО ЭНЕРГЕТИКЗКО,  УРАЛЬСКТЭЦ 7"
 },
 {
  "type": "Point",
  "coordinates": [
   51.227821,
   51.3865431
  ],
  "address": "ЗКО УРАЛЬСК САДОВОДЧЕСКОЕ ТОВАРИЩЕСТВО ЛОКОМОТИВ 493"
 },
 {
  "type": "Point",
  "coordinates": [
   51.2374044,
   51.4581049
  ],
  "address": "ЗКО УРАЛЬСК ЛЕСОЗАЩИТНАЯ 30"
 },
 {
  "type": "Point",
  "coordinates": [
   51.227821,
   51.3865431
  ],
  "address": "ЗКО УРАЛЬСК МКР САРЫТАУ УЛ. 1ЗКО,  УРАЛЬСКЯ, Д. 47/1"
 },
 {
  "type": "Point",
  "coordinates": [
   51.2286029,
   51.3594618
  ],
  "address": "ЗКО УРАЛЬСК МИКРОРАЙОН САРЫАРҚА, УЛИЦА ТӘУКЕ ХАН 26"
 },
 {
  "type": "Point",
  "coordinates": [
   51.227821,
   51.3865431
  ],
  "address": "ЗКО УРАЛЬСК УЛИЦА КАЙРАТ ЖУМАГАЛИЕВ 47, 2"
 },
 {
  "type": "Point",
  "coordinates": [
   51.21680449999999,
   51.3677468
  ],
  "address": "ЗКО УРАЛЬСК К.АМАНЖОЛОВ Д.162, КВ.27"
 },
 {
  "type": "Point",
  "coordinates": [
   51.2509082,
   51.3469744
  ],
  "address": "ЗКО УРАЛЬСК П.ДЕРКУЛ МИКРОРАЙОН АҚБАҚАЙ 41,"
 },
 {
  "type": "Point",
  "coordinates": [
   51.2491488,
   51.4186261
  ],
  "address": "ЗКО УРАЛЬСК ЦИОЛСКОВСКОГО Д.20 КВ 77"
 },
 {
  "type": "Point",
  "coordinates": [
   51.1833062,
   51.2740586
  ],
  "address": "ЗКО УРАЛЬСК МКР КЕНДАЛА ЖЕРҰЙЫК 32"
 },
 {
  "type": "Point",
  "coordinates": [
   51.2465904,
   51.423839
  ],
  "address": "ЗКО УРАЛЬСК УЛИЦА.САДОВОДЧЕСКОЕ ТОВАРИЩЕСТВО АРМАН Д 5"
 },
 {
  "type": "Point",
  "coordinates": [
   51.2511466,
   51.42610490000001
  ],
  "address": "ЗКО УРАЛЬСК 5 МКР Д 8, КВ 53"
 },
 {
  "type": "Point",
  "coordinates": [
   51.254287,
   51.42249169999999
  ],
  "address": "ЗКО УРАЛЬСК УЛИЦА ГЕРОЯ СОВЕТСКОГО СОЮЗА Г.РАМАЕВА 19"
 },